$GNGGA,105218.800,3203.6359,N,11847.0941,E,1,05,2.1,33.6,M,1.2,M,,0003C0201A0000100070009000B100932064C
$GNGGA,105220.800,3203.6359,N,11847.0941,E,1,05,2.1,33.6,M,1.2,M,,0003C0201A0000100070009000B100932054B
$GNGGA,105222.800,3203.6359,N,11847.0941,E,1,05,2.1,33.6,M,1.2,M,,0003C0201A000010007000A000C100932044C
$GNGGA,105224.800,3203.6359,N,11847.0941,E,1,05,2.1,33.6,M,1.2,M,,0003C0201A000010007000A000C100932034B
$GNGGA,105226.800,3203.6346,N,11847.0936,E,1,05,2.2,38.5,M,1.2,M,,0003C0201A000010007000A000C1008320249
$GNGGA,105235.000,3203.6342,N,11847.0931,E,1,05,2.1,37.7,M,1.2,M,,0003C0201A000010007000C000E1009320450
$GNGGA,105237.000,3203.6340,N,11847.0927,E,1,05,2.1,36.3,M,1.2,M,,0003C0201A000010007000C000E100832034E
$GNGGA,105245.000,3203.6320,N,11847.0923,E,1,05,2.1,36.0,M,1.2,M,,0003C0201A000010007000A000C1009320048
$GNGGA,105247.000,3203.6308,N,11847.0918,E,1,05,2.1,35.5,M,1.2,M,,0003C0201A000010007000A000C1009320048
$GNGGA,105249.000,3203.6291,N,11847.0908,E,1,05,2.1,34.6,M,1.2,M,,0003C0201A000010007000A000C1009310950
$GNGGA,105251.000,3203.6282,N,11847.0897,E,1,05,2.2,34.1,M,1.2,M,,0003C0201A000010007000A000C1009310950
$GNGGA,105253.000,3203.6275,N,11847.0881,E,1,05,2.2,32.6,M,1.2,M,,0003C0201A000010007000A000C1008320047
$GNGGA,105255.000,3203.6274,N,11847.0879,E,1,05,2.2,32.2,M,1.2,M,,0003C0201A000010007000A000C1009320149
$GNGGA,105257.000,3203.6269,N,11847.0872,E,1,05,2.2,31.9,M,1.2,M,,0003C0201A000010007000A000C1008320047
$GNGGA,105307.000,3203.6269,N,11847.0805,E,1,05,2.2,31.0,M,1.2,M,,0003C0201A000010007000A000C100931074E
$GNGGA,105309.000,3203.6269,N,11847.0794,E,1,05,2.2,31.0,M,1.2,M,,0003C0201A000010007000A000C100931084F
$GNGGA,105311.000,3203.6269,N,11847.0789,E,1,05,2.2,29.3,M,1.2,M,,0003C0201A000010007000A000C100931064D
$GNGGA,105313.000,3203.6283,N,11847.0769,E,1,05,2.2,28.0,M,1.2,M,,0003C0201A000010007000A000C100931054C
ALIENTEK-HRTDT
$GNGGA,105315.000,3203.6284,N,11847.0758,E,1,05,2.2,26.9,M,1.2,M,,0003C0201A0000100070009000B1009310449
$GNGGA,105317.000,3203.6281,N,11847.0753,E,1,05,2.2,24.6,M,1.2,M,,0003C0201A0000100070009000B1009310247
$GNGGA,105319.000,3203.6281,N,11847.0746,E,1,05,2.2,24.2,M,1.2,M,,0003C0201A0000100070009000B1009310146
$GNGGA,105321.000,3203.6277,N,11847.0739,E,1,05,2.2,23.1,M,1.2,M,,0003C0201A0000100070009000B100930094D
$GNGGA,105323.000,3203.6274,N,11847.0733,E,1,05,2.2,23.7,M,1.2,M,,0003C0201A0000100070009000B110031013E
$GNGGA,105325.000,3203.6274,N,11847.0733,E,1,05,2.2,23.7,M,1.2,M,,0003C0201A0000100070009000B1100310340
$GNGGA,105327.000,3203.6279,N,11847.0717,E,1,05,2.2,23.0,M,1.2,M,,0003C0201A0000100070009000B1009310348
$GNGGA,105329.000,3203.6281,N,11847.0707,E,1,05,2.2,23.2,M,1.2,M,,0003C0201A0000100070009000B110031023F
$GNGGA,105331.000,3203.6281,N,11847.0699,E,1,05,2.2,22.9,M,1.2,M,,0003C0201A0000100070009000B110031013E
$GNGGA,105333.000,3203.6281,N,11847.0690,E,1,05,2.2,23.1,M,1.2,M,,0003C0201A0000100070009000B1100310441
$GNGGA,105335.200,3203.6280,N,11847.0683,E,1,05,2.2,23.9,M,1.2,M,,0003C0201A000010007000A000C1100310645
$GNGGA,105337.000,3203.6279,N,11847.0680,E,1,05,2.2,24.1,M,1.2,M,,0003C0201A000010007000A000C1100310544
$GNGGA,105339.000,3203.6280,N,11847.0670,E,1,05,2.2,24.1,M,1.2,M,,0003C0201A000010007000A000C1100310544
$GNGGA,105347.200,3203.6272,N,11847.0626,E,1,05,8.9,22.6,M,1.2,M,,0003C0201A000010007000A000C1100310746
$GNGGA,105349.200,3203.6268,N,11847.0622,E,1,05,8.9,21.8,M,1.2,M,,0003C0201A000010007000A000C1100310645
$GNGGA,105353.600,3203.6270,N,11847.0626,E,0,00,0.0,23.5,M,0.0,M,,0003C0201A000010007000000001009310435
$GNGGA,105355.600,3203.6270,N,11847.0626,E,0,00,0.0,23.5,M,0.0,M,,0003C0201A000010007000200021009310237
$GNGGA,105357.600,3203.6261,N,11847.0514,E,1,04,8.9,23.7,M,1.2,M,,0003C0201A000010007000300031009310239
$GNGGA,105359.600,3203.6221,N,11847.0365,E,1,05,2.2,24.0,M,1.2,M,,0003C0201A000010007000600071009310240
$GNGGA,105401.600,3203.6191,N,11847.0325,E,1,05,2.2,24.1,M,1.2,M,,0003C0201A0000100070009000B1008310448
$GNGGA,105407.600,3203.6188,N,11847.0296,E,1,05,2.2,27.3,M,1.2,M,,0003C0201A000010007000C000E100831034D
$GNGGA,105413.600,3203.6205,N,11847.0233,E,1,05,2.2,30.2,M,1.2,M,,0003C0201A000010007000A000C1007310045
$GNGGA,105415.600,3203.6215,N,11847.0239,E,1,05,2.2,32.0,M,1.2,M,,0003C0201A000010007000A000C100730084C
$GNGGA,105417.600,3203.6225,N,11847.0234,E,1,05,2.2,33.3,M,1.2,M,,0003C0201A0000100070009000B100730084A
$GNGGA,105419.600,3203.6230,N,11847.0229,E,1,05,9.1,34.6,M,1.2,M,,0003C0201A0000100070009000B1008310145
$GNGGA,105421.600,3203.6244,N,11847.0218,E,1,05,2.2,35.1,M,1.2,M,,0003C0201A0000100070009000B1008310549
$GNGGA,105423.600,3203.6251,N,11847.0202,E,1,05,9.1,35.1,M,1.2,M,,0003C0201A0000100070009000B100831084C
$GNGGA,105425.600,3203.6256,N,11847.0189,E,1,05,9.1,35.0,M,1.2,M,,0003C0201A0000100070009000B100831074B
$GNGGA,105427.600,3203.6262,N,11847.0186,E,1,05,9.1,35.1,M,1.2,M,,0003C0201A0000100070009000B100931064B
$GNGGA,105429.600,3203.6302,N,11847.0144,E,1,05,2.2,35.2,M,1.2,M,,0003C0201A0000100070009000B100931074C
$GNGGA,105431.600,3203.6305,N,11847.0142,E,1,05,9.1,35.2,M,1.2,M,,0003C0201A000010007000A000C100931074E
$GNGGA,105433.600,3203.6309,N,11847.0118,E,1,05,2.2,35.6,M,1.2,M,,0003C0201A000010007000A000C100931064D
$GNGGA,105439.600,3203.6327,N,11847.0082,E,1,05,2.2,37.1,M,1.2,M,,0003C0201A000010007000C000E1100310245
$GNGGA,105441.600,3203.6323,N,11847.0046,E,1,05,9.2,36.8,M,1.2,M,,0003C0201A000010007000C000E1100310144
$GNGGA,105443.600,3203.6318,N,11847.0035,E,1,05,2.2,37.3,M,1.2,M,,0003C0201A000010007000C000E100931004B
$GNGGA,105453.800,3203.6327,N,11846.9980,E,1,05,9.3,37.7,M,1.2,M,,0003C0201A000010007000C000E1100300648
$GNGGA,105455.800,3203.6336,N,11846.9930,E,1,05,9.3,37.9,M,1.2,M,,0003C0201A000010007000C000E1100300648
$GNGGA,105511.800,3203.6306,N,11846.9905,E,1,05,2.2,39.7,M,1.2,M,,0003C0201A000010007000C000E1100300446
ALIENTEK-HRTDT
$GNGGA,105513.800,3203.6306,N,11846.9905,E,1,05,2.2,39.7,M,1.2,M,,0003C0201A000010007000C000E1100300547
$GNGGA,105515.800,3203.6305,N,11846.9905,E,1,05,2.3,39.3,M,1.2,M,,0003C0201A000010007000C000E1100300648
$GNGGA,105517.800,3203.6301,N,11846.9898,E,1,05,2.3,38.2,M,1.2,M,,0003C0201A000010007000C000E1009300650
$GNGGA,105922.600,3203.6382,N,11846.9502,E,0,00,0.0,22.5,M,0.0,M,,0003C0201A00001000700000000110130062F
$GNGGA,105924.600,3203.6377,N,11846.9311,E,1,10,1.4,84.3,M,1.2,M,,0003C0201A000010007000200021101300633
$GNGGA,105926.600,3203.6382,N,11846.9319,E,1,11,1.0,77.9,M,1.2,M,,0003C0201A000010007000300031101300534
$GNGGA,105928.600,3203.6382,N,11846.9319,E,1,11,1.0,77.9,M,1.2,M,,0003C0201A000010007000500061101300438
$GNGGA,105930.600,3203.6382,N,11846.9319,E,1,11,1.0,77.9,M,1.2,M,,0003C0201A00001000700080009110130033D
$GNGGA,105932.600,3203.6381,N,11846.9337,E,1,11,1.0,55.7,M,1.2,M,,0003C0201A000010007000A000C1101300241
$GNGGA,105934.600,3203.6375,N,11846.9344,E,1,12,1.0,37.8,M,1.2,M,,0003C0201A000010007000A000C1101300241
O
$GNGGA,105959.200,3203.6325,N,11846.9351,E,0,00,0.0,18.3,M,0.0,M,,0003C0201A000010007000000001100300129
$GNGGA,110001.200,3203.6256,N,11846.9454,E,1,08,1.3,40.4,M,1.2,M,,0003C0201A00001000700020002110030012D
$GNGGA,110003.200,3203.6256,N,11846.9453,E,1,09,1.1,41.9,M,1.2,M,,0003C0201A00001000700020002110030012D
$GNGGA,110005.200,3203.6256,N,11846.9453,E,1,09,1.1,41.9,M,1.2,M,,0003C0201A000010007000400041100300131
$GNGGA,110008.200,3203.6256,N,11846.9453,E,1,09,1.1,41.9,M,1.2,M,,0003C0201A000010007000000001100300129
$GNGGA,110010.200,3203.6256,N,11846.9453,E,1,09,1.1,41.9,M,1.2,M,,0003C0201A00001000700020002110030022E
$GNGGA,110012.200,3203.6256,N,11846.9453,E,1,09,1.1,41.9,M,1.2,M,,0003C0201A000010007000400041100300232
$GNGGA,110014.400,3203.6256,N,11846.9453,E,1,09,1.1,41.9,M,1.2,M,,0003C0201A00001000700080009110030023B
$GNGGA,110018.400,3203.6251,N,11846.9442,E,1,12,1.0,31.0,M,1.2,M,,0003C0201A000010007000F0012110030024B
$GNGGA,110020.400,3203.6251,N,11846.9442,E,1,12,1.0,30.9,M,1.2,M,,0003C0201A00001000700100013110030014C
$GNGGA,110022.400,3203.6252,N,11846.9436,E,1,12,1.0,32.9,M,1.2,M,,0003C0201A000010007001200161100300353
$GNGGA,110024.400,3203.6254,N,11846.9419,E,1,12,1.0,31.9,M,1.2,M,,0003C0201A000010007001100151100300654
$GNGGA,110026.400,3203.6259,N,11846.9403,E,1,12,1.0,29.5,M,1.2,M,,0003C0201A000010007001000131009300558
$GNGGA,110028.400,3203.6260,N,11846.9390,E,1,12,0.9,29.6,M,1.2,M,,0003C0201A000010007001000131009300457
$GNGGA,110030.400,3203.6261,N,11846.9378,E,1,12,1.0,28.8,M,1.2,M,,0003C0201A000010007000F00121009300354
$GNGGA,110032.400,3203.6265,N,11846.9368,E,1,12,0.9,28.8,M,1.2,M,,0003C0201A000010007000E00111009300352
$GNGGA,110034.400,3203.6267,N,11846.9363,E,1,12,1.0,26.8,M,1.2,M,,0003C0201A000010007000E00111008300250
$GNGGA,110036.600,3203.6266,N,11846.9359,E,1,12,1.0,26.8,M,1.2,M,,0003C0201A000010007000000001009300232
$GNGGA,110041.400,3203.6266,N,11846.9359,E,1,12,1.0,26.8,M,1.2,M,,0003C0201A000010007000000001009300333
$GNGGA,110043.400,3203.6266,N,11846.9359,E,1,12,1.0,26.8,M,1.2,M,,0003C0201A000010007000200021009300337
$GNGGA,110045.400,3203.6266,N,11846.9359,E,1,12,1.0,26.8,M,1.2,M,,0003C0201A00001000700030003100930043A
$GNGGA,110047.400,3203.6264,N,11846.9356,E,1,12,1.0,27.8,M,1.2,M,,0003C0201A00001000700030003100930043A
$GNGGA,110051.400,3203.6263,N,11846.9334,E,1,12,1.0,27.5,M,1.2,M,,000493C0201A0000007000C000E100930054F
ALIENTEK-HRTDT
$GNGGA,110101.400,3203.6266,N,11846.9257,E,1,12,0.9,28.4,M,1.2,M,,000533C02A000010007000E0011100831004F
$GNGGA,110103.400,3203.6270,N,11846.9247,E,1,12,0.9,25.5,M,1.2,M,,0003C0201A000010007000E00111008300856
$GNGGA,110105.400,3203.6277,N,11846.9239,E,1,12,0.9,27.5,M,1.2,M,,0003C0201A000010007000E00111008300654
$GNGGA,110107.600,3203.6284,N,11846.9232,E,1,12,1.0,26.8,M,1.2,M,,0003C0201A000010007000E00111008300553
$GNGGA,110109.400,3203.6301,N,11846.9225,E,1,12,0.9,27.5,M,1.2,M,,0003C0201A000010007000E00111007300451
$GNGGA,110111.400,3203.6311,N,11846.9222,E,1,12,1.1,26.4,M,1.2,M,,0003C0201A000010007000E00111007300451
$GNGGA,110113.600,3203.6327,N,11846.9222,E,1,12,0.9,24.4,M,1.2,M,,0003C0201A000010007000E00111008300452
$GNGGA,110115.400,3203.6340,N,11846.9220,E,1,12,0.9,26.1,M,1.2,M,,0003C0201A000010007000E00111008300452
$GNGGA,110121.400,3203.6364,N,11846.9213,E,1,12,0.9,26.1,M,1.2,M,,0003C0201A000010007000E00111008300452
$GNGGA,110123.400,3203.6374,N,11846.9213,E,1,12,0.9,23.9,M,1.2,M,,0003C0201A000010007000E00111008300452
$GNGGA,110125.600,3203.6383,N,11846.9213,E,1,12,0.9,23.4,M,1.2,M,,0003C0201A000010007000E00111007300350
$GNGGA,110131.600,3203.6429,N,11846.9204,E,1,12,1.0,23.3,M,1.2,M,,0003C0201A000010007000F00121007300150
$GNGGA,110133.400,3203.6439,N,11846.9203,E,1,12,1.0,22.6,M,1.2,M,,0003C0201A000010007000E0011100730004D
$GNGGA,110135.600,3203.6459,N,11846.9201,E,1,12,1.0,22.8,M,1.2,M,,0003C0201A000010007000E0011100730004D
$GNGGA,110137.600,3203.6472,N,11846.9199,E,1,12,1.0,22.9,M,1.2,M,,0003C0201A000010007000E0011100730004D
$GNGGA,110141.600,3203.6498,N,11846.9191,E,1,12,1.0,23.4,M,1.2,M,,0003C0201A000010007000C000E1006300148
$GNGGA,110143.600,3203.6512,N,11846.9192,E,1,12,1.0,22.3,M,1.2,M,,0003C0201A000010007000C000E1006300249
$GNGGA,110145.600,3203.6523,N,11846.9188,E,1,12,1.0,22.7,M,1.2,M,,0003C0201A000010007000C000E1006300249
$GNGGA,110147.400,3203.6535,N,11846.9184,E,1,12,1.0,22.6,M,1.2,M,,0003C0201A000010007000C000E1006300249
$GNGGA,110149.600,3203.6554,N,11846.9184,E,1,12,1.0,21.8,M,1.2,M,,0003C0201A000010007000C000E100730024A
$GNGGA,110151.400,3203.6565,N,11846.9181,E,1,12,1.0,20.8,M,1.2,M,,0003C0201A000010007000C000E100630034A
$GNGGA,110153.400,3203.6577,N,11846.9180,E,1,12,1.0,20.9,M,1.2,M,,0003C0201A000010007000C000E100630034A
$GNGGA,110155.600,3203.6586,N,11846.9175,E,1,12,1.0,21.4,M,1.2,M,,0003C0201A000010007000C000E100630044B
$GNGGA,110157.400,3203.6596,N,11846.9173,E,1,12,1.0,22.3,M,1.2,M,,0003C0201A000010007000C000E100630054C
$GNGGA,110159.600,3203.6608,N,11846.9171,E,1,12,1.0,22.7,M,1.2,M,,0003C0201A000010007000C000E100630054C
$GNGGA,110201.600,3203.6620,N,11846.9165,E,1,12,1.0,24.3,M,1.2,M,,0003C0201A000010007000C000E100530054B
GNGGA,110203.800,3203.6635,N,11846.9162,E,1,12,1.0,24.9,M,1.2,M,,00003C0201A000010007000C000E100530054B
$GNGGA,110205.600,3203.6654,N,11846.9168,E,1,12,1.0,21.4,M,1.2,M,,0003C0201A000010007000C000E100530054B
4,137,33,202,37,232,34*67

$BDGSV,3,3,12,204,32,121,34,205,00,000,33,3C0201A000010007000C000E100530054B
,44,137,34,202,37,232,35*6F

$BDGSV,3,3,12,204,32,121,36,205,00,000,33C0201A000010007000E00111006300450
$GNGGA,110215.600,3203.6715,N,11846.9169,E,1,12,1.0,15.6,M,1.2,M,,0003C0201A000010007000E0011100530044F
$GNGGA,110217.600,3203.6723,N,11846.9172,E,1,12,1.0,15.6,M,1.2,M,,0003C0201A000010007000E0011100530044F
$GNGGA,110223.600,3203.6765,N,11846.9177,E,1,12,0.9,21.4,M,1.2,M,,0003C0201A000010007000C000E1005300349
,44,137,38,202,37,232,28*6F

$BDGSV,3,3,12,204,32,121,30,205,00,000,33C0201A000010007000C000E1005300349
$GNGGA,110227.800,3203.6782,N,11846.9174,E,1,12,0.9,25.2,M,1.2,M,,0003C0201A000010007000C000E1005300248
$GNGGA,110247.600,3203.6882,N,11846.9150,E,1,12,0.9,29.1,M,1.2,M,,0003C0201B00002000E000C000E1004300562
,44,137,38,202,37,232,31*67

$BDGSV,3,3,12,204,32,121,34,205,00,000,33C0201B20002000F000C000E1004300565
$GNGGA,110251.600,3203.6888,N,11846.9148,E,1,12,0.9,31.3,M,1.2,M,,0003C0201B400020010000C000E1004300568
$GNGGA,110253.600,3203.6888,N,11846.9147,E,1,12,0.9,31.9,M,1.2,M,,0003C0201B700020011000C000E100430056C
ALIENTEK-HRTDT
$GNGGA,110259.600,3203.6892,N,11846.9144,E,1,12,0.9,36.7,M,1.2,M,,0000016000C000E100430057D01B700020011
4,137,34,202,37,232,28*66

$BDGSV,3,3,12,204,32,121,36,205,00,000,25,3C0201B400020010000C000E1004300669
$GNGGA,110304.000,3203.6888,N,11846.9141,E,1,12,0.9,44.5,M,1.2,M,,0003C0201B00002000E000C000E1004300663
$GNGGA,110306.000,3203.6887,N,11846.9140,E,1,12,0.9,45.6,M,1.2,M,,0003C0201B20002000F000C000E1004300666
$GNGGA,110308.000,3203.6890,N,11846.9139,E,1,12,0.9,43.7,M,1.2,M,,0003C0201B400020010000C000E1004300669
$GNGGA,110310.000,3203.6891,N,11846.9138,E,1,12,1.0,44.5,M,1.2,M,,0003C0201A70001000A000C000E1004300655
$GNGGA,110312.000,3203.6891,N,11846.9138,E,1,12,1.0,44.5,M,1.2,M,,0003C0201CE0003001B000C000E1005300690
$GNGGA,110314.000,3203.6889,N,11846.9134,E,1,12,1.1,45.6,M,1.2,M,,0003C0201DE00040022000C000E10053006A8
$GNGGA,110316.000,3203.6896,N,11846.9129,E,1,12,0.9,46.9,M,1.2,M,,0003C020342001B00BD000C000E10053006C0
$GNGGA,110318.000,3203.6897,N,11846.9122,E,1,12,0.9,51.7,M,1.2,M,,0003C0207D000CF05AA000C000E10053005F7
$GNGGA,110320.000,3203.6905,N,11846.9120,E,1,12,0.9,50.4,M,1.2,M,,0003C0207D0008803B9000C000E10053005BD
$GNGGA,110322.000,3203.6915,N,11846.9116,E,1,12,0.9,50.0,M,1.2,M,,0003C0206F600550259000C000E100630044E
$GNGGA,110324.000,3203.6924,N,11846.9117,E,1,12,0.9,47.4,M,1.2,M,,0003C020563003C01AA000C000E10063003F0
$GNGGA,110326.000,3203.6931,N,11846.9120,E,1,12,0.9,43.2,M,1.2,M,,0003C02047B002E0145000C000E1006300394
$GNGGA,110328.000,3203.6941,N,11846.9118,E,1,12,0.9,42.8,M,1.2,M,,0003C02041100270117000C000E10063005F7
$GNGGA,110330.000,3203.6954,N,11846.9124,E,1,12,0.9,41.7,M,1.2,M,,0003C02037E001E00D7000C000E1006300519
$GNGGA,110332.000,3203.6963,N,11846.9127,E,1,12,0.9,40.6,M,1.2,M,,0003C020306001700A3000C000E1006300465
$GNGGA,110334.000,3203.6976,N,11846.9127,E,1,12,0.9,37.7,M,1.2,M,,0003C0202B40012007F000C000E10073003E9
$GNGGA,110336.000,3203.6985,N,11846.9127,E,1,12,0.9,36.2,M,1.2,M,,0003C020281000F0069000C000E100730029C
$GNGGA,110346.000,3203.7054,N,11846.9144,E,1,12,0.9,35.7,M,1.2,M,,0003C0201D50004001E000C000E10072F099F
$GNGGA,110348.000,3203.7066,N,11846.9145,E,1,12,0.9,37.4,M,1.2,M,,0003C0201D50004001E000C000E10072F099F
$GNGGA,110354.200,3203.7097,N,11846.9145,E,1,12,0.9,37.9,M,1.2,M,,0003C0202E200150093000A000C10082F0930
$GNGGA,110356.200,3203.7106,N,11846.9144,E,1,12,0.9,38.4,M,1.2,M,,0003C02028A000F006D000A000C10072F09AB
$GNGGA,110402.200,3203.7137,N,11846.9121,E,1,12,1.0,28.1,M,1.2,M,,0003C0202200009003F000C000E1006300008
$GNGGA,110408.200,3203.7148,N,11846.9116,E,1,12,1.0,26.0,M,1.2,M,,0003C0202150008003A000E001110073002FF
$GNGGA,110410.200,3203.7148,N,11846.9116,E,1,12,1.0,26.0,M,1.2,M,,0003C0202150008003A000E001110073002FF
$GNGGA,110412.200,3203.7149,N,11846.9115,E,1,12,1.1,28.9,M,1.2,M,,0003C02022E00090045000E00111007300224
$GNGGA,110414.200,3203.7150,N,11846.9113,E,1,12,1.0,29.1,M,1.2,M,,0003C02022E00090045000E00111007300325
$GNGGA,110416.200,3203.7163,N,11846.9110,E,1,12,1.0,27.8,M,1.2,M,,0003C02022700090042000E0011100730031B
$GNGGA,110432.200,3203.7290,N,11846.9041,E,1,11,1.1,22.6,M,1.2,M,,000C53C0202B800120081000E0011100730F4
$GNGGA,110434.200,3203.7290,N,11846.9037,E,1,12,0.9,24.6,M,1.2,M,,0003C0202CB00130089000E00111008300412
$GNGGA,110436.200,3203.7295,N,11846.9035,E,1,12,0.9,28.4,M,1.2,M,,0003C02032B001900B3000F001210083005A6
$GNGGA,110438.200,3203.7302,N,11846.9034,E,1,12,0.9,31.6,M,1.2,M,,0003C02032B001900B3000F001210083005A6
$GNGGA,110440.200,3203.7306,N,11846.9028,E,1,12,0.9,35.2,M,1.2,M,,0003C02032B001900B3000F001210083005A6
$GNGGA,110442.200,3203.7311,N,11846.9022,E,1,12,0.9,36.6,M,1.2,M,,0003C0203E3002501030010001310083008C0
$GNGGA,110444.200,3203.7316,N,11846.9021,E,1,11,1.0,39.9,M,1.2,M,,0003C0203F30026010A0011001510083008DB
$GNGGA,110446.200,3203.7321,N,11846.9019,E,1,12,1.0,44.0,M,1.2,M,,0003C0203F30026010A0011001510083008DB
$GNGGA,110448.200,3203.7328,N,11846.9019,E,1,12,0.9,47.5,M,1.2,M,,0003C0203F30026010A0011001510083008DB
$GNGGA,110450.400,3203.7337,N,11846.9018,E,1,12,1.0,50.2,M,1.2,M,,0003C0203F30026010A0011001510083008DB
$GNGGA,110452.400,3203.7346,N,11846.9022,E,1,12,1.0,54.9,M,1.2,M,,0003C0203F30026010A0011001510083008DB
$GNGGA,110454.400,3203.7353,N,11846.9023,E,1,12,0.9,58.1,M,1.2,M,,0003C020456002C013500120016100830056F
ALIENTEK-HRTDT
$GNGGA,110456.400,3203.7365,N,11846.9023,E,1,12,0.9,58.8,M,1.2,M,,0003C020448002B012F001100151007300456
$GNGGA,110458.400,3203.7373,N,11846.9024,E,1,12,0.9,60.8,M,1.2,M,,0003C0203FF0026010F0011001510073003E6
$GNGGA,110500.400,3203.7384,N,11846.9021,E,1,12,0.9,60.8,M,1.2,M,,0003C0203DA002400FF0010001310073003AB
$GNGGA,110502.400,3203.7398,N,11846.9024,E,1,12,0.9,61.1,M,1.2,M,,0003C02037E001E00D7001000131006300320
$GNGGA,110504.400,3203.7405,N,11846.9022,E,1,12,0.9,58.8,M,1.2,M,,0003C020342001B00BD0010001310063004C8
$GNGGA,110506.400,3203.7416,N,11846.9019,E,1,12,0.9,54.5,M,1.2,M,,0003C02032B001900B3000F001210073004A4
$GNGGA,110508.400,3203.7424,N,11846.9016,E,1,12,1.0,53.5,M,1.2,M,,0003C02032B001900B3000F001210063004A3
$GNGGA,110510.400,3203.7429,N,11846.9017,E,1,12,0.9,55.1,M,1.2,M,,0003C020310001700A7000F0012100730057C
$GNGGA,110512.400,3203.7443,N,11846.9015,E,1,12,0.9,55.5,M,1.2,M,,0003C0202EF00150099000F00121006300549
$GNGGA,110514.400,3203.7452,N,11846.9017,E,1,12,1.0,54.3,M,1.2,M,,0003C0202DF00140092000F00121007300532
$GNGGA,110516.400,3203.7463,N,11846.9024,E,1,12,0.9,53.1,M,1.2,M,,0003C0202CF0013008B000F00121006300519
$GNGGA,110518.400,3203.7474,N,11846.9027,E,1,12,0.9,49.9,M,1.2,M,,0003C0202D60014008E000F00121006300524
$GNGGA,110520.400,3203.7489,N,11846.9035,E,1,12,0.9,44.0,M,1.2,M,,0003C0202CF0013008B00100013100630051B
$GNGGA,110522.400,3203.7508,N,11846.9042,E,1,12,0.9,44.1,M,1.2,M,,0003C0202C60013008700100013100630060F
$GNGGA,110524.400,3203.7519,N,11846.9040,E,1,12,1.0,48.5,M,1.2,M,,0003C0202CB00130089001000131007300516
$GNGGA,110526.400,3203.7533,N,11846.9040,E,1,12,0.9,53.3,M,1.2,M,,0003C0202D80014008F00100013100630062A
$GNGGA,110528.400,3203.7539,N,11846.9033,E,1,12,0.9,55.2,M,1.2,M,,0003C0202D20014008C001000131006300621
$GNGGA,110530.400,3203.7554,N,11846.9023,E,1,12,0.9,57.4,M,1.2,M,,0003C0202B800120081000F001210063005F7
$GNGGA,110532.400,3203.7564,N,11846.9021,E,1,12,0.9,57.4,M,1.2,M,,0003C0202A400110078000F001210063005D9
$GNGGA,110538.400,3203.7615,N,11846.9010,E,1,12,0.9,56.6,M,1.2,M,,00080000E001110053006F23C0202AA001100
$GNGGA,110540.400,3203.7632,N,11846.9009,E,1,12,0.9,55.3,M,1.2,M,,0003C0202AF0011007D000E001110053006E7
$GNGGA,110542.400,3203.7645,N,11846.9005,E,1,12,0.9,51.9,M,1.2,M,,0003C02029F00100076000E001110043007CF
$GNGGA,110544.400,3203.7657,N,11846.8994,E,1,12,0.9,51.9,M,1.2,M,,0003C02029800100073000E001110043008C6
$GNGGA,110550.400,3203.7708,N,11846.8965,E,1,12,0.9,41.8,M,1.2,M,,00086000F006B000E001110043008AB3C0202
$GNGGA,110552.600,3203.7718,N,11846.8960,E,1,12,0.9,39.7,M,1.2,M,,000AB3C020278000E00000E00111004300997
$GNGGA,110554.400,3203.7728,N,11846.8957,E,1,12,0.9,39.2,M,1.2,M,,0003C020276000E0064000E00111004300994
$GNGGA,110556.400,3203.7740,N,11846.8954,E,1,12,0.9,40.4,M,1.2,M,,0003C02027F000E0068000E001110043009A1
$GNGGA,110558.600,3203.7773,N,11846.8945,E,1,12,0.9,37.3,M,1.2,M,,0003C020286000F006B000E001110043009AC
$GNGGA,110600.400,3203.7797,N,11846.8942,E,1,12,0.9,35.2,M,1.2,M,,0003C02028F000F006F000E001110043009B9
$GNGGA,110602.400,3203.7824,N,11846.8935,E,1,12,1.0,31.2,M,1.2,M,,0003C02029800100073000E001110043100BF
$GNGGA,110604.600,3203.7846,N,11846.8934,E,1,12,1.0,29.7,M,1.2,M,,0003C0202A400110078000E001110043100D1
$GNGGA,110612.400,3203.7883,N,11846.8939,E,1,12,0.9,32.1,M,1.2,M,,0003C0202BB00120082000C000E10033101EE
$GNGGA,110614.600,3203.7893,N,11846.8932,E,1,12,1.0,30.8,M,1.2,M,,0003C0202BB00120082000C000E10043102F0
$GNGGA,110616.600,3203.7911,N,11846.8922,E,1,12,0.9,31.0,M,1.2,M,,0003C020312001800A8000C000E1004310375
$GNGGA,110618.400,3203.7922,N,11846.8915,E,1,12,0.9,31.4,M,1.2,M,,0003C02033B001A00BA000C000E10043106B5
$GNGGA,110620.600,3203.7937,N,11846.8913,E,1,12,0.9,30.5,M,1.2,M,,0003C02031B001800AC000C000E1004310786
$GNGGA,110622.600,3203.7958,N,11846.8911,E,1,12,0.9,31.3,M,1.2,M,,0003C020300001600A0000C000E100431065C
$GNGGA,110624.400,3203.7970,N,11846.8909,E,1,12,1.0,29.5,M,1.2,M,,0003C0202EB00150097000C000E100431053B
$GNGGA,110626.600,3203.7985,N,11846.8906,E,1,12,0.9,27.3,M,1.2,M,,0003C0202EB00150097000C000E100431053B
$GNGGA,110628.600,3203.7993,N,11846.8907,E,1,12,0.9,27.5,M,1.2,M,,0003C0202E600150095000C000E1004310534
$GNGGA,110636.400,3203.8055,N,11846.8908,E,1,12,0.9,26.1,M,1.2,M,,0003C020319001800AB000E00111004310788
$GNGGA,110638.600,3203.8068,N,11846.8909,E,1,12,0.9,27.4,M,1.2,M,,0003C020317001800AA000E00111005310786
$GNGGA,110640.600,3203.8077,N,11846.8912,E,1,12,0.9,29.9,M,1.2,M,,0003C020342001B00BD000E001110043108C7
GNGGA,110642.800,3203.8084,N,11846.8912,E,1,11,1.0,32.7,M,1.2,M,,00003C020337001A00B8000E001110043108B6
$GNGGA,110644.800,3203.8093,N,11846.8914,E,1,12,0.9,35.8,M,1.2,M,,0003C020319001800AB000E00111004310788
$GNGGA,110646.600,3203.8101,N,11846.8915,E,1,12,0.9,37.3,M,1.2,M,,0003C02031D001800AD000E0011100431068D
$GNGGA,110648.600,3203.8110,N,11846.8912,E,1,12,0.9,39.1,M,1.2,M,,0003C02039E002000E5000F0012100432014C
$GNGGA,110650.800,3203.8120,N,11846.8903,E,1,12,0.9,43.0,M,1.2,M,,0003C020359001C00C7000F001210043200E4
0,232,32,201,44,137,37*63

$BDGSV,3,3,12,202,37,232,29,204,32,121,30,3C02032B001900B3000F001210043109A7
$GNGGA,110654.600,3203.8129,N,11846.8915,E,1,12,0.9,44.3,M,1.2,M,,0003C02033B001A00BA000F001210043109BF
ALIENTEK-HRTDT
$GNGGA,110656.600,3203.8136,N,11846.8918,E,1,12,0.9,46.4,M,1.2,M,,0003C02030B001700A5000F00121004310876
0,232,32,201,44,137,36*67

$BDGSV,3,3,12,202,37,232,33,204,32,121,34,3C0202D80014008F000F00121004310627
$GNGGA,110700.600,3203.8156,N,11846.8928,E,1,12,0.9,51.1,M,1.2,M,,0003C0202F60016009C000F00121004310654
$GNGGA,110702.600,3203.8165,N,11846.8932,E,1,12,0.9,52.3,M,1.2,M,,0003C0202EF00150099000E00111004310748
0,232,29,201,44,137,33*6E

$BDGSV,3,3,12,202,37,232,34,204,32,121,31,3C020300001600A0000E00111005310763
GNGGA,110706.800,3203.8178,N,11846.8935,E,1,12,0.9,56.9,M,1.2,M,,00003C0202C100130085000E00111005310604
$GNGGA,110708.600,3203.8180,N,11846.8935,E,1,12,1.0,58.6,M,1.2,M,,0003C0202AF0011007D000E001110053105E7
0,232,32,201,44,137,27*6B

$BDGSV,3,3,12,202,37,232,30,204,32,121,27,3C0202F20016009A000E0011100731034C
$GNGGA,110724.600,3203.8251,N,11846.8926,E,1,12,1.0,66.9,M,1.2,M,,0003C020306001700A3000E0011100731026A
$GNGGA,110726.600,3203.8259,N,11846.8928,E,1,12,1.0,72.0,M,1.2,M,,0003C0202EF00150099000E00111006310144
0,232,31,201,44,137,27*60

$BDGSV,3,3,12,202,37,232,31,204,32,121,25,3C0202D60014008E000F00121006310020
$GNGGA,110730.800,3203.8267,N,11846.8933,E,1,12,0.9,76.2,M,1.2,M,,0003C0202F20016009A000F00121006300952
$GNGGA,110732.600,3203.8273,N,11846.8933,E,1,12,0.9,75.6,M,1.2,M,,0003C0202E20015009300100013100630093C
,50,232,32,201,44,137,29*6F

$BDGSV,3,3,12,202,37,232,28,204,32,121,23C0202CB00130089001000131006300919
$GNGGA,110736.600,3203.8284,N,11846.8932,E,1,12,1.0,77.5,M,1.2,M,,0003C0202BF00120084001000131006300806
$GNGGA,110738.800,3203.8287,N,11846.8935,E,1,12,1.0,79.5,M,1.2,M,,0003C0202BF00120084001000131006300806
0,232,31,201,44,137,36*63

$BDGSV,3,3,12,202,37,232,29,204,32,121,30,3C0202AF0011007D0010001310063008EE
$GNGGA,110742.600,3203.8301,N,11846.8934,E,1,12,1.0,72.0,M,1.2,M,,0003C0202EB00150097000F00121006300846
$GNGGA,110744.800,3203.8302,N,11846.8933,E,1,12,1.0,77.3,M,1.2,M,,0003C0202C10013008500110015100530080C
$GNGGA,110747.000,3203.8312,N,11846.8930,E,1,12,1.0,67.5,M,1.2,M,,0003C0202E400150094001200161005300741
$GNGGA,110749.000,3203.8317,N,11846.8927,E,1,12,1.0,70.0,M,1.2,M,,0003C020302001700A10015001A1006300777
$GNGGA,110751.000,3203.8324,N,11846.8925,E,1,12,1.0,72.7,M,1.2,M,,0003C0202E2001500930017001C100530084A
$GNGGA,110753.000,3203.8342,N,11846.8921,E,1,12,1.0,48.8,M,1.2,M,,0003C0202C400130086001A0020100531001D
$GNGGA,110755.000,3203.8383,N,11846.8909,E,1,12,0.9,30.4,M,1.2,M,,0003C0202C400130086001B0021100531001F
$GNGGA,110757.000,3203.8412,N,11846.8897,E,1,12,1.1,25.3,M,1.2,M,,0003C0202DF00140092001B00211005310047
$GNGGA,110759.000,3203.8441,N,11846.8878,E,1,12,1.4,30.5,M,1.2,M,,0003C0202DF00140092001B0021100530094F
$GNGGA,110801.000,3203.8454,N,11846.8874,E,1,12,0.9,33.3,M,1.2,M,,0003C020317001800AA0019001F10053009A0
$GNGGA,110803.000,3203.8480,N,11846.8880,E,1,12,1.1,32.4,M,1.2,M,,0003C0202F90016009D0016001B100530096B
$GNGGA,110805.000,3203.8493,N,11846.8883,E,1,12,1.3,30.8,M,1.2,M,,0003C02030B001700A5001400181005300881
$GNGGA,110807.000,3203.8505,N,11846.8887,E,1,12,0.9,31.9,M,1.2,M,,0003C0202E400150094001100151005300941
$GNGGA,110809.000,3203.8515,N,11846.8885,E,1,12,0.9,34.0,M,1.2,M,,0003C0202D80014008F000E00111005300827
$GNGGA,110811.000,3203.8533,N,11846.8888,E,1,12,0.9,33.8,M,1.2,M,,0003C0202DF00140092000E00111005300831
$GNGGA,110815.000,3203.8553,N,11846.8889,E,1,12,0.9,34.6,M,1.2,M,,0003C02029600100072000C000E10043008BE
$GNGGA,110817.000,3203.8577,N,11846.8891,E,1,12,1.1,33.5,M,1.2,M,,0003C020283000F006A000C000E10053008A3
$GNGGA,110819.000,3203.8587,N,11846.8890,E,1,12,0.9,32.8,M,1.2,M,,0003C020281000F0069000C000E10053008A0
$GNGGA,110825.000,3203.8617,N,11846.8891,E,1,12,0.9,29.9,M,1.2,M,,0003C020276000E0064000A000C1004310083
$GNGGA,110827.000,3203.8630,N,11846.8892,E,1,12,0.9,30.3,M,1.2,M,,0003C020278000E0065000A000C1004310086
$GNGGA,110831.000,3203.8658,N,11846.8884,E,1,12,1.0,29.7,M,1.2,M,,0003C02025F000C005A000A000C1005310061
$GNGGA,110833.000,3203.8683,N,11846.8876,E,1,12,1.0,31.1,M,1.2,M,,0003C020248000B0050000A000C100431003E
$GNGGA,110835.000,3203.8711,N,11846.8882,E,1,12,0.9,26.4,M,1.2,M,,0003C02024E000B0053000A000C1004310047
$GNGGA,110837.000,3203.8729,N,11846.8884,E,1,12,1.0,22.5,M,1.2,M,,0003C020243000B004E000A000C100430093F
$GNGGA,110847.200,3203.8793,N,11846.8881,E,1,12,0.9,25.6,M,1.2,M,,0003C02021A0008003C000C000E10043100FD
$GNGGA,110849.200,3203.8795,N,11846.8879,E,1,12,0.9,29.2,M,1.2,M,,0003C02021E0008003E000C000E1003310002
$GNGGA,110851.200,3203.8802,N,11846.8877,E,1,12,1.0,32.7,M,1.2,M,,0003C02021E0008003E000C000E1003310103
$GNGGA,110853.200,3203.8809,N,11846.8872,E,1,12,0.9,34.6,M,1.2,M,,0003C0202170008003B000C000E10033102FA
$GNGGA,110855.200,3203.8825,N,11846.8861,E,1,12,0.9,34.5,M,1.2,M,,0003C020235000A0048000C000E1002310226
ALIENTEK-HRTDT
$GNGGA,110903.200,3203.8862,N,11846.8832,E,1,12,0.9,35.6,M,1.2,M,,0003C02029800100073000A000C10023106BA
$GNGGA,110905.200,3203.8872,N,11846.8827,E,1,12,0.9,37.7,M,1.2,M,,0003C0202AA0011007B000A000C10033106D6
$GNGGA,110907.200,3203.8894,N,11846.8823,E,1,12,1.3,37.9,M,1.2,M,,0003C0202AA0011007B000A000C10033106D6
$GNGGA,110909.200,3203.8904,N,11846.8820,E,1,12,0.9,39.4,M,1.2,M,,0003C0202AF0011007D000A000C10033107DE
$GNGGA,110911.200,3203.8919,N,11846.8813,E,1,12,0.9,40.4,M,1.2,M,,0003C0202A600110079000A000C10033107D1
$GNGGA,110913.200,3203.8926,N,11846.8809,E,1,12,1.3,41.4,M,1.2,M,,0003C0202A400110078000A000C10033107CE
$GNGGA,110925.200,3203.8961,N,11846.8780,E,1,11,1.0,54.2,M,1.2,M,,0003C0202A400110078000A000C10033106CD
$GNGGA,110927.200,3203.8971,N,11846.8773,E,1,12,0.9,53.2,M,1.2,M,,0003C0202A4001100780009000B10033106CB
$GNGGA,110929.200,3203.8981,N,11846.8768,E,1,12,1.0,54.2,M,1.2,M,,0003C0202FB0016009E0009000B100331074E
$GNGGA,110931.200,3203.8993,N,11846.8761,E,1,12,0.9,53.2,M,1.2,M,,0003C0202FB0016009E0009000B100331074E
$GNGGA,110933.200,3203.9001,N,11846.8756,E,1,12,0.9,53.7,M,1.2,M,,0003C0203AA002100EA000800091004320552
$GNGGA,110935.400,3203.9014,N,11846.8750,E,1,12,0.9,52.5,M,1.2,M,,0003C020373001E00D20009000B1004320402
$GNGGA,110937.400,3203.9037,N,11846.8739,E,1,12,0.9,51.3,M,1.2,M,,0003C02035C001C00C8000A000C10043202DF
$GNGGA,110939.400,3203.9045,N,11846.8734,E,1,12,0.9,53.1,M,1.2,M,,0003C020347001B00BF000C000E10053200C3
$GNGGA,110943.400,3203.9062,N,11846.8733,E,1,12,0.9,57.8,M,1.2,M,,0003C020317001800AA000F00121005310788
$GNGGA,110945.400,3203.9077,N,11846.8735,E,1,12,0.9,57.7,M,1.2,M,,0003C020367001D00CD001100151005310705
$GNGGA,110947.400,3203.9080,N,11846.8734,E,1,12,0.9,55.5,M,1.2,M,,0003C020327001900B10012001610053107A7
$GNGGA,110949.400,3203.9103,N,11846.8753,E,1,12,1.0,44.2,M,1.2,M,,0003C0202B40012007F0013001710053105FA
$GNGGA,110951.400,3203.9110,N,11846.8754,E,1,12,1.0,41.4,M,1.2,M,,0003C020253000C0055001300171005310367
$GNGGA,110953.400,3203.9113,N,11846.8759,E,1,12,0.9,38.3,M,1.2,M,,0003C020209000700350013001710043101F5
$GNGGA,110955.400,3203.9117,N,11846.8759,E,1,12,0.9,39.0,M,1.2,M,,0003C0201D50004001E0012001610043100A3
$GNGGA,110957.400,3203.9125,N,11846.8757,E,1,12,1.0,44.5,M,1.2,M,,0003C0201DB000400210011001510043009B2
$GNGGA,110959.400,3203.9129,N,11846.8755,E,1,12,1.3,49.9,M,1.2,M,,0003C0201B400020010000F00121004300973
$GNGGA,111003.400,3203.9146,N,11846.8741,E,1,12,0.9,59.2,M,1.2,M,,0003C0201B700020011000C000E1004300970
$GNGGA,111005.400,3203.9152,N,11846.8735,E,1,12,0.9,61.1,M,1.2,M,,0003C0201B400020010000A000C1004310060
$GNGGA,111009.400,3203.9168,N,11846.8729,E,1,12,1.0,59.8,M,1.2,M,,0003C0201A70001000A0009000B100431014B
$GNGGA,111011.400,3203.9178,N,11846.8723,E,1,12,1.0,58.8,M,1.2,M,,0003C0201A90001000B0009000B100431014E
$GNGGA,111013.400,3203.9191,N,11846.8718,E,1,12,1.0,58.8,M,1.2,M,,0003C0201AB0001000C000A000C1004310153
$GNGGA,111017.400,3203.9213,N,11846.8711,E,1,12,1.0,59.5,M,1.2,M,,0003C0201B00002000E000A000C100431015B
$GNGGA,111021.400,3203.9240,N,11846.8701,E,1,12,1.0,57.0,M,1.2,M,,0003101563C02010004001E000A0C10043101
$GNGGA,111037.400,3203.9396,N,11846.8687,E,1,12,1.0,40.1,M,1.2,M,,00009F93C02010004001F000C000E1030099F
$GNGGA,111039.400,3203.9437,N,11846.8685,E,1,12,1.0,35.4,M,1.2,M,,00009F93C02010004001F000C000E1030099F
$GNGGA,111041.400,3203.9471,N,11846.8682,E,1,12,0.9,34.9,M,1.2,M,,0003C0201A90001000B000C000E100330095A
$GNGGA,111043.600,3203.9489,N,11846.8680,E,1,12,1.0,28.4,M,1.2,M,,0003C0201AB0001000C000C000E1003310055
$GNGGA,111045.400,3203.9509,N,11846.8683,E,1,12,1.1,21.0,M,1.2,M,,0003C0201AB0001000C000C000E1003310055
ALIENTEK-HRTDT
$GNGGA,111109.400,3203.9627,N,11846.8640,E,1,12,1.0,41.4,M,1.2,M,,0003C02022E00090045000C000E1003310923
$GNGGA,111111.600,3203.9645,N,11846.8636,E,1,12,0.9,39.5,M,1.2,M,,0003C02023A000A004A000C000E100332002D
$GNGGA,111113.600,3203.9654,N,11846.8634,E,1,12,0.9,41.5,M,1.2,M,,0003C0202200009003F000C000E1003320007
GNGGA,111147.800,3203.9954,N,11846.8496,E,1,12,0.9,19.9,M,1.2,M,,00003C0201B400020010000C000E1004310064
0,195,30,201,44,137,*65

$BDGSV,3,3,12,226,38,054,,202,37,232,24,212,3C0201A70001000A000C000E1004300958
GNGGA,111151.800,3203.9975,N,11846.8491,E,1,12,0.9,16.9,M,1.2,M,,00003C0201A90001000B000C000E100430085A
$GNGGA,111153.600,3203.9990,N,11846.8490,E,1,12,0.9,17.6,M,1.2,M,,0003C0201AB0001000C000C000E100430085D
195,31,201,44,137,*6D

$BDGSV,3,3,12,226,38,054,,202,37,232,,212,00,03C0201C200030016000A000C100430067A
$GNGGA,111203.800,3204.0037,N,11846.8476,E,1,11,1.0,20.8,M,1.2,M,,0003C0201E900050027000A000C10043007B5
$GNGGA,111205.600,3204.0044,N,11846.8473,E,1,12,0.9,20.5,M,1.2,M,,0003C02022A00090043000A000C1004300717
$GNGGA,111209.800,3204.0053,N,11846.8471,E,1,12,0.9,24.2,M,1.2,M,,0003C02029A001000740009000B10053007BE
$GNGGA,111211.800,3204.0057,N,11846.8476,E,1,11,1.1,25.0,M,1.2,M,,0003C0202A1001100770009000B10053007C9
$GNGGA,111215.800,3204.0076,N,11846.8509,E,1,11,1.0,34.3,M,1.2,M,,0003C02025F000C005A0009000B1005300967
NGGA,111217.800,3204.0102,N,11846.8526,E,1,12,0.9,39.5,M,1.2,M,,0000*3C020253000C00550009000B100531014F
44,137,31*66

$BDGSV,3,3,12,226,37,055,,202,37,232,,212,00,000,24,2143C02024A000B00510009000B1005310343
GNGGA,111221.800,3204.0115,N,11846.8552,E,1,12,0.9,43.1,M,1.2,M,,00003C020241000B004D0009000B1005310437
$GNGGA,111223.600,3204.0124,N,11846.8564,E,1,12,0.9,45.7,M,1.2,M,,0003C020241000B004D0009000B1005310437
44,137,28*6B

$BDGSV,3,3,12,226,37,055,,202,37,232,,212,00,000,24,2143C020233000A00470009000B1005310523
$GNGGA,111227.800,3204.0152,N,11846.8601,E,1,12,0.9,42.8,M,1.2,M,,0003C020237000A00490009000B1005310529
$GNGGA,111229.600,3204.0158,N,11846.8616,E,1,12,0.9,42.7,M,1.2,M,,0003C020237000A00490009000B100531062A
,137,28*60

$BDGSV,3,3,12,226,37,055,,202,37,232,,212,00,000,24,214,03C02023E000A004C0009000B1005310634
$GNGGA,111234.000,3204.0172,N,11846.8642,E,1,12,0.9,44.5,M,1.2,M,,0003C02023A000A004A000A000C1006310631
$GNGGA,111236.000,3204.0183,N,11846.8659,E,1,12,0.9,44.1,M,1.2,M,,0003C020241000B004D000A000C100631063C
$GNGGA,111238.000,3204.0191,N,11846.8674,E,1,12,1.0,45.1,M,1.2,M,,0003C020241000B004D000A000C100531073C
$GNGGA,111240.000,3204.0195,N,11846.8686,E,1,12,1.0,45.4,M,1.2,M,,0003C02023E000A004C000A000C1005310737
$GNGGA,111242.000,3204.0202,N,11846.8702,E,1,12,0.9,43.4,M,1.2,M,,0003C02023E000A004C000A000C1006310839
$GNGGA,111244.000,3204.0206,N,11846.8713,E,1,12,1.0,41.9,M,1.2,M,,0003C02023A000A004A000A000C1005310832
$GNGGA,111246.000,3204.0206,N,11846.8728,E,1,12,1.0,39.7,M,1.2,M,,0003C02023E000A004C000A000C1006310839
$GNGGA,111248.000,3204.0208,N,11846.8746,E,1,12,1.0,41.4,M,1.2,M,,0003C02023E000A004C000A000C1006310839
$GNGGA,111250.000,3204.0212,N,11846.8765,E,1,12,1.0,42.8,M,1.2,M,,0003C020243000B004E000A000C1006310841
$GNGGA,111252.000,3204.0217,N,11846.8782,E,1,12,1.0,43.7,M,1.2,M,,0003C020241000B004D000A000C100731083F
$GNGGA,111254.000,3204.0222,N,11846.8799,E,1,12,1.0,41.8,M,1.2,M,,0003C020286000F006B000A000C10073108A6
ALIENTEK-HRTDT
$GNGGA,111308.000,3204.0268,N,11846.8926,E,1,12,0.9,21.1,M,1.2,M,,0003C020377001E00D4000A000C100731060E
$GNGGA,111310.000,3204.0275,N,11846.8949,E,1,12,0.9,19.7,M,1.2,M,,0003C020387001F00DB000A000C1007310525
$GNGGA,111312.000,3204.0277,N,11846.8966,E,1,12,0.9,20.7,M,1.2,M,,0003C0203D3002400FC000A000C1007310799
$GNGGA,111314.000,3204.0288,N,11846.8984,E,1,12,0.9,20.5,M,1.2,M,,0003C0203DC00240100000A000C10073108A8
$GNGGA,111316.000,3204.0292,N,11846.8997,E,1,12,1.0,19.9,M,1.2,M,,0003C0203CA002300F8000A000C100731088C
$GNGGA,111318.000,3204.0297,N,11846.9014,E,1,12,1.0,20.5,M,1.2,M,,0003C0203BC002200F2000A000C1007310877
$GNGGA,111320.000,3204.0303,N,11846.9030,E,1,12,1.0,20.5,M,1.2,M,,0003C0203D8002400FE000A000C10073107A0
$GNGGA,111322.000,3204.0305,N,11846.9054,E,1,12,1.0,21.4,M,1.2,M,,0003C0203BC002200F2000A000C1006310775
$GNGGA,111324.000,3204.0311,N,11846.9071,E,1,12,1.0,22.0,M,1.2,M,,0003C0203A3002100E7000A000C1006310750
$GNGGA,111326.000,3204.0314,N,11846.9088,E,1,12,1.0,22.2,M,1.2,M,,0003C0203A3002100E7000A000C1006310750
$GNGGA,111334.200,3204.0320,N,11846.9153,E,1,12,0.9,22.5,M,1.2,M,,0003C0204F70036017B000A000C1006310850
$GNGGA,111336.200,3204.0302,N,11846.9175,E,1,12,1.0,21.7,M,1.2,M,,0003C02054A003B019F000A000C10063109CE
$GNGGA,111338.200,3204.0291,N,11846.9199,E,1,12,1.0,20.8,M,1.2,M,,0003C020462002C013A000A000C100531086F
$GNGGA,111340.200,3204.0291,N,11846.9219,E,1,12,0.9,22.8,M,1.2,M,,0003C0203C3002300F5000A000C100531077F
$GNGGA,111342.200,3204.0294,N,11846.9238,E,1,12,0.9,23.8,M,1.2,M,,0003C02037C001E00D6000A000C1004310713
$GNGGA,111344.200,3204.0293,N,11846.9258,E,1,12,1.0,23.0,M,1.2,M,,0003C020339001A00B90009000B10043108AE
$GNGGA,111346.200,3204.0295,N,11846.9270,E,1,12,1.0,21.8,M,1.2,M,,0003C020319001800AB0009000B1004320077
$GNGGA,111348.200,3204.0297,N,11846.9288,E,1,12,0.9,23.2,M,1.2,M,,0003C020300001600A00009000B1003320252
$GNGGA,111350.200,3204.0301,N,11846.9302,E,1,12,1.3,23.4,M,1.2,M,,0003C0202DB001400900009000B100232031A
$GNGGA,111352.200,3204.0300,N,11846.9323,E,1,11,1.0,24.1,M,1.2,M,,0003C0202AF0011007D0009000B10023204D9
$GNGGA,111354.200,3204.0304,N,11846.9334,E,1,12,0.9,26.1,M,1.2,M,,0003C0202A1001100770008000910023206C4
$GNGGA,111356.200,3204.0313,N,11846.9341,E,1,12,0.9,27.2,M,1.2,M,,0003C0202A1001100770008000910023207C5
$GNGGA,111358.200,3204.0323,N,11846.9349,E,1,12,0.9,28.7,M,1.2,M,,0003C0202A1001100770008000910033208C7
$GNGGA,111400.200,3204.0328,N,11846.9359,E,1,12,0.9,29.4,M,1.2,M,,0003C02029F001000760007000810023209C1
$GNGGA,111402.200,3204.0336,N,11846.9367,E,1,12,0.9,31.4,M,1.2,M,,0003C02028A000F006D0007000810033209A3
$GNGGA,111408.200,3204.0345,N,11846.9395,E,1,12,0.9,33.4,M,1.2,M,,0003C02025F000C005A00080009100333005C
$GNGGA,111410.200,3204.0346,N,11846.9405,E,1,12,0.9,33.1,M,1.2,M,,0003C02025F000C005A000800091003320964
$GNGGA,111416.200,3204.0375,N,11846.9433,E,1,12,0.9,29.2,M,1.2,M,,0003C020253000C00550009000B1004320957
$GNGGA,111418.200,3204.0395,N,11846.9440,E,1,12,0.9,29.8,M,1.2,M,,0003C020248000B0050000A000C1004320847
$GNGGA,111424.400,3204.0405,N,11846.9475,E,1,10,1.0,34.5,M,1.2,M,,0003C0201E700050026000A000C10043207B4
$GNGGA,111426.400,3204.0410,N,11846.9493,E,1,11,0.9,32.9,M,1.2,M,,0003C0201C900030019000A000C1004320787
$GNGGA,111428.400,3204.0428,N,11846.9511,E,1,11,0.9,29.8,M,1.2,M,,0003C0201B00002000E000A000C1004320762
$GNGGA,111430.400,3204.0440,N,11846.9522,E,1,12,1.1,30.0,M,1.2,M,,0003C0201B20002000F000A000C1004320664
$GNGGA,111432.400,3204.0451,N,11846.9536,E,1,12,0.9,30.1,M,1.2,M,,0003C0201B400020010000A000C1004320768
$GNGGA,111434.400,3204.0459,N,11846.9551,E,1,12,1.0,29.6,M,1.2,M,,0003C0201B700020011000A000C100332076B
$GNGGA,111436.400,3204.0464,N,11846.9560,E,1,12,1.0,29.3,M,1.2,M,,0003C0201A90001000B000A000C1003320756
ALIENTEK-HRTDT
$GNGGA,111504.400,3204.0569,N,11846.9727,E,1,11,1.1,38.1,M,1.2,M,,0003C020248000B0050000C000E1002330648
$GNGGA,111506.400,3204.0573,N,11846.9739,E,1,12,0.9,35.4,M,1.2,M,,0003C02025F000C005A000C000E1001330669
$GNGGA,111508.400,3204.0582,N,11846.9758,E,1,11,0.9,34.8,M,1.2,M,,0003C02025F000C005A000C000E1001330669
$GNGGA,111516.400,3204.0607,N,11846.9825,E,1,12,0.9,30.7,M,1.2,M,,0003C020258000C0057000E00110F09340066
$GNGGA,111520.400,3204.0617,N,11846.9855,E,1,12,1.0,29.5,M,1.2,M,,0003C020258000C0057000F00120F08340269
$GNGGA,111524.400,3204.0641,N,11846.9871,E,1,12,0.9,29.1,M,1.2,M,,0003C020255000C0056000F00120F08340467
$GNGGA,111526.400,3204.0646,N,11846.9888,E,1,12,0.9,27.3,M,1.2,M,,0003C02024A000B0051000F00120F08340658
$GNGGA,111528.600,3204.0650,N,11846.9908,E,1,12,0.9,25.8,M,1.2,M,,0003C02024A000B0051000F00120F08340658
$GNGGA,111530.400,3204.0651,N,11846.9922,E,1,12,0.9,24.6,M,1.2,M,,0003C02022E00090045000F00120F0834072F
$GNGGA,111532.400,3204.0652,N,11846.9940,E,1,12,0.9,24.1,M,1.2,M,,0003C02020700070034000E00110F073408F3
$GNGGA,111536.400,3204.0657,N,11846.9969,E,1,11,1.0,23.6,M,1.2,M,,0003C0201E200050024000C000E0F073409B7
$GNGGA,111542.400,3204.0672,N,11847.0004,E,1,12,0.9,26.7,M,1.2,M,,000C03C02020E00070037000A000C0F3502EF
$GNGGA,111544.400,3204.0677,N,11847.0016,E,1,12,0.9,27.5,M,1.2,M,,0003C02021300080039000A000C0F073503F8
$GNGGA,111546.600,3204.0684,N,11847.0028,E,1,12,0.9,28.0,M,1.2,M,,0003C0202170008003B000A000C0F073504FF
$GNGGA,111548.600,3204.0678,N,11847.0041,E,1,12,0.9,26.3,M,1.2,M,,0003C0201F90006002E000A000C0F073505D2
$GNGGA,111550.400,3204.0666,N,11847.0051,E,1,12,0.9,25.5,M,1.2,M,,0003C0201F90006002E000A000C0F073505D2
$GNGGA,111552.600,3204.0649,N,11847.0062,E,1,11,0.9,24.9,M,1.2,M,,0003C0201BE00020014000A000C0F07350579
$GNGGA,111554.400,3204.0639,N,11847.0062,E,1,12,0.9,23.3,M,1.2,M,,0003C0201AB0001000C000A000C0F0735055D
$GNGGA,111558.600,3204.0626,N,11847.0072,E,1,12,0.9,22.1,M,1.2,M,,0003C0201B00002000E000A000C0F07350666
$GNGGA,111600.600,3204.0624,N,11847.0081,E,1,12,0.9,22.3,M,1.2,M,,0003C0201B20002000F000A000C0F07350669
$GNGGA,111602.600,3204.0623,N,11847.0090,E,1,12,0.9,22.5,M,1.2,M,,0003C0201B400020010000A000C0F0735076D
$GNGGA,111604.600,3204.0625,N,11847.0094,E,1,12,0.9,23.8,M,1.2,M,,0003C0201A70001000A000A000C0F07350759
$GNGGA,111606.600,3204.0627,N,11847.0100,E,1,12,0.9,25.1,M,1.2,M,,0003C0201A90001000B0009000B0F0735075A
$GNGGA,111608.600,3204.0632,N,11847.0107,E,1,12,1.1,23.2,M,1.2,M,,0003C0201AB0001000C0009000B0F0735065C
$GNGGA,111612.600,3204.0634,N,11847.0127,E,1,12,0.9,25.7,M,1.2,M,,0003C0201B00002000E0009000B0F07350664
$GNGGA,111614.400,3204.0632,N,11847.0142,E,1,12,0.9,25.7,M,1.2,M,,0003C0201B20002000F0009000B0F08350567
$GNGGA,111616.600,3204.0632,N,11847.0147,E,1,12,0.9,27.3,M,1.2,M,,0003C0201B4000200100009000B0F0835056A
$GNGGA,111618.600,3204.0629,N,11847.0167,E,1,12,0.9,28.4,M,1.2,M,,0003C0201B7000200110009000B0F0835056E
NGGA,111620.800,3204.0619,N,11847.0199,E,1,12,0.9,28.7,M,1.2,M,,0000*3C0201C0000300150009000B0F0835057C
$GNGGA,111622.600,3204.0620,N,11847.0211,E,1,12,0.9,27.9,M,1.2,M,,0003C0201C0000300150009000B0F0835057C
NGGA,111624.800,3204.0607,N,11847.0240,E,1,12,0.9,27.3,M,1.2,M,,0000*3C0201B20002000F0009000B0F08350466
$GNGGA,111626.800,3204.0600,N,11847.0262,E,1,12,0.9,26.5,M,1.2,M,,0003C0201B7000200110009000B0F0835046D
44,137,26*65

$BDGSV,3,3,12,202,37,232,,226,37,056,,212,00,000,23,2143C0201B7000200110009000B0F0835046D
$GNGGA,111630.600,3204.0594,N,11847.0299,E,1,12,0.9,26.1,M,1.2,M,,0003C0201B20002000F000800090F08350362
NGGA,111632.800,3204.0601,N,11847.0315,E,1,12,0.9,26.5,M,1.2,M,,0000*3C0201B400020010000800090F09350265
44,137,26*64

$BDGSV,3,3,12,202,37,232,,226,37,056,,212,00,000,23,2143C0201B400020010000800090F09350265
$GNGGA,111638.800,3204.0596,N,11847.0364,E,1,12,0.9,26.9,M,1.2,M,,0003C0201B7000200110009000B0F0935006A
44,137,27*63

$BDGSV,3,3,12,202,37,232,,204,32,121,33,212,00,000,20,23C0201BE000200140009000B0F09350074
$GNGGA,111642.600,3204.0591,N,11847.0399,E,1,12,0.9,27.4,M,1.2,M,,0003C0201C000030015000A000C0F09340982
$GNGGA,111644.600,3204.0583,N,11847.0414,E,1,12,0.9,24.9,M,1.2,M,,0003C0201B700020011000A000C0F09340873
44,137,32*6A

$BDGSV,3,3,12,202,37,232,,204,32,121,33,212,00,000,29,23C0201B700020011000A000C0F08340872
$GNGGA,111654.600,3204.0552,N,11847.0481,E,1,12,0.9,21.1,M,1.2,M,,0003C0201C900030019000A000C0F08350187
$GNGGA,111656.800,3204.0548,N,11847.0494,E,1,12,0.9,21.4,M,1.2,M,,0003C0201D70004001F000A000C0F0835029D
44,137,33*61

$BDGSV,3,3,12,202,37,232,,204,32,121,38,212,00,000,25,23C0201F70006002D000A000C0F073502CC
ALIENTEK-HRTDT
$GNGGA,111700.800,3204.0542,N,11847.0530,E,1,12,0.9,20.7,M,1.2,M,,0003C0201F90006002E0009000B0F073504CF
$GNGGA,111702.600,3204.0544,N,11847.0539,E,1,12,0.9,20.4,M,1.2,M,,0003C0201EE000500290009000B0F063505BE
1,44,137,33*6E

$BDGSV,3,3,12,202,37,232,,204,32,121,34,212,00,000,253C0201E7000500260009000B0F063507B6
$GNGGA,111706.800,3204.0546,N,11847.0572,E,1,12,0.9,19.6,M,1.2,M,,0003C0201E9000500270009000B0F053509BA
$GNGGA,111708.600,3204.0546,N,11847.0586,E,1,12,0.9,20.8,M,1.2,M,,0003C0201EE000500290009000B0F053600B9
1,44,137,34*60

$BDGSV,3,3,12,202,37,232,,204,32,121,33,212,00,000,213C0201F50006002C0009000B0F053601C5
$GNGGA,111712.600,3204.0537,N,11847.0626,E,1,12,0.9,21.6,M,1.2,M,,0003C0201F70006002D0009000B0F053602C9
$GNGGA,111714.800,3204.0532,N,11847.0642,E,1,12,0.9,22.8,M,1.2,M,,0003C0201F50006002C0009000B0F053603C7
,50,235,32,201,44,137,32*68

$BDGSV,3,3,12,202,37,232,33,204,32,121,33C0201E7000500260009000B0F043605B3
NGGA,111718.800,3204.0527,N,11847.0674,E,1,12,0.9,24.1,M,1.2,M,,0000*3C0201E2000500240009000B0F043606AD
$GNGGA,111720.800,3204.0525,N,11847.0691,E,1,12,0.9,25.5,M,1.2,M,,0003C0201DE000400220009000B0F043607A7
0,235,35,201,44,137,33*61

$BDGSV,3,3,12,202,37,232,35,204,32,121,33,3C0201DE000400220009000B0F043607A7
$GNGGA,111724.600,3204.0527,N,11847.0719,E,1,12,0.9,26.0,M,1.2,M,,0003C0201C9000300190009000B0F03360888
$GNGGA,111727.000,3204.0522,N,11847.0736,E,1,12,0.9,27.9,M,1.2,M,,0003C0201C9000300190009000B0F04360889
$GNGGA,111729.000,3204.0520,N,11847.0751,E,1,11,0.9,28.5,M,1.2,M,,0003C0201BE00020014000A000C0F04370073
$GNGGA,111731.000,3204.0517,N,11847.0766,E,1,12,0.9,29.9,M,1.2,M,,0003C0201B20002000F000A000C0F03370263
$GNGGA,111735.000,3204.0509,N,11847.0797,E,1,12,0.9,30.7,M,1.2,M,,0003C0201A70001000A000A000C0F03370454
$GNGGA,111737.000,3204.0508,N,11847.0811,E,1,12,0.9,30.5,M,1.2,M,,0003C0201A90001000B000A000C0F03370457
$GNGGA,111745.000,3204.0494,N,11847.0870,E,1,12,0.9,31.4,M,1.2,M,,0003C0201B20002000F000A000C0F03370061
$GNGGA,111747.000,3204.0491,N,11847.0888,E,1,12,0.9,29.7,M,1.2,M,,0003C0201B400020010000A000C0F0336096C
$GNGGA,111751.000,3204.0486,N,11847.0917,E,1,12,0.9,26.9,M,1.2,M,,0003C0201A90001000B000A000C0F0336085A
$GNGGA,111753.000,3204.0482,N,11847.0931,E,1,12,0.9,26.6,M,1.2,M,,0003C0201AB0001000C000A000C0F0336085D
$GNGGA,111757.000,3204.0473,N,11847.0959,E,1,12,0.9,25.3,M,1.2,M,,0003C0201B00002000E000A000C0F03360865
$GNGGA,111759.000,3204.0470,N,11847.0976,E,1,12,0.9,26.4,M,1.2,M,,0003C0201B20002000F000A000C0F03360868
$GNGGA,111801.000,3204.0469,N,11847.0992,E,1,12,0.9,26.0,M,1.2,M,,0003C0201B400020010000A000C0F0236086A
$GNGGA,111803.000,3204.0467,N,11847.1007,E,1,12,0.9,26.2,M,1.2,M,,0003C0201BB00020013000A000C0F02360773
$GNGGA,111805.000,3204.0463,N,11847.1023,E,1,12,0.9,26.1,M,1.2,M,,0003C0201B4000200100009000B0F02360767
$GNGGA,111807.000,3204.0461,N,11847.1037,E,1,12,0.9,26.1,M,1.2,M,,0003C0201B20002000F0009000B0F03360664
$GNGGA,111809.000,3204.0461,N,11847.1050,E,1,12,0.9,26.1,M,1.2,M,,0003C0201BE000200140009000B0F02360573
$GNGGA,111811.000,3204.0460,N,11847.1063,E,1,12,0.9,26.3,M,1.2,M,,0003C0201C7000300180009000B0F03360481
$GNGGA,111813.000,3204.0460,N,11847.1079,E,1,12,0.9,26.4,M,1.2,M,,0003C0201D20004001D0009000B0F03360492
$GNGGA,111815.000,3204.0458,N,11847.1095,E,1,12,0.9,26.8,M,1.2,M,,0003C0201DB000400210009000B0F0236049E
$GNGGA,111817.000,3204.0452,N,11847.1110,E,1,12,0.9,26.8,M,1.2,M,,0003C0201DE000400220009000B0F033605A4
$GNGGA,111819.000,3204.0450,N,11847.1124,E,1,12,0.9,27.1,M,1.2,M,,0003C0201EE000500290009000B0F023605BB
$GNGGA,111821.200,3204.0444,N,11847.1138,E,1,12,0.9,26.9,M,1.2,M,,0003C020213000800390009000B0F033606F6
$GNGGA,111823.200,3204.0441,N,11847.1155,E,1,12,0.9,26.5,M,1.2,M,,0003C020209000700350009000B0F023606E6
$GNGGA,111825.200,3204.0438,N,11847.1172,E,1,12,0.9,27.1,M,1.2,M,,0003C020209000700350009000B0F023606E6
$GNGGA,111827.200,3204.0434,N,11847.1191,E,1,12,0.9,27.3,M,1.2,M,,0003C0202150008003A0009000B0F023606F8
$GNGGA,111829.200,3204.0433,N,11847.1208,E,1,12,0.9,26.9,M,1.2,M,,0003C0202200009003F0009000B0F02360508
$GNGGA,111831.200,3204.0431,N,11847.1223,E,1,12,0.9,26.7,M,1.2,M,,0003C02021E0008003E0009000B0F02360403
$GNGGA,111833.200,3204.0425,N,11847.1241,E,1,12,0.9,26.1,M,1.2,M,,0003C0202170008003B0009000B0F023606FB
$GNGGA,111835.200,3204.0427,N,11847.1254,E,1,12,0.9,26.2,M,1.2,M,,0003C0202150008003A0009000B0F023607F9
$GNGGA,111837.200,3204.0428,N,11847.1268,E,1,12,0.9,25.9,M,1.2,M,,0003C020235000A0048000A000C0F0236082C
$GNGGA,111839.200,3204.0431,N,11847.1282,E,1,12,0.9,25.9,M,1.2,M,,0003C020276000E0064000A000C0F0236098E
$GNGGA,111841.200,3204.0432,N,11847.1297,E,1,12,0.9,25.4,M,1.2,M,,0003C0202AA0011007B000A000C0F023700D4
$GNGGA,111843.200,3204.0437,N,11847.1314,E,1,12,0.9,26.2,M,1.2,M,,0003C0202C1001300850009000B0F023700F5
$GNGGA,111845.200,3204.0439,N,11847.1326,E,1,12,0.9,26.4,M,1.2,M,,0003C0202DF001400920009000B0F02370021
$GNGGA,111847.200,3204.0443,N,11847.1333,E,1,12,0.9,27.3,M,1.2,M,,0003C0202DB001400900009000B0F0237001B
$GNGGA,111849.200,3204.0445,N,11847.1349,E,1,12,0.9,27.2,M,1.2,M,,0003C0202DF00140092000800090F0237001E
$GNGGA,111851.200,3204.0442,N,11847.1366,E,1,12,0.9,27.2,M,1.2,M,,0003C0202F90016009D000800090F0236084C
$GNGGA,111853.200,3204.0443,N,11847.1385,E,1,12,0.9,27.7,M,1.2,M,,0003C020312001800A8000800090F02360772
$GNGGA,111855.200,3204.0444,N,11847.1401,E,1,12,0.9,28.0,M,1.2,M,,0003C020324001900B0000800090F0236058B
$GNGGA,111857.200,3204.0441,N,11847.1418,E,1,12,0.9,27.9,M,1.2,M,,0003C02031B001800AC000800090F0236047C
$GNGGA,111859.200,3204.0437,N,11847.1435,E,1,12,0.9,27.8,M,1.2,M,,0003C0202F90016009D000800090F02360246
ALIENTEK-HRTDT
$GNGGA,111901.200,3204.0432,N,11847.1454,E,1,12,0.9,27.5,M,1.2,M,,0003C0202F90016009D000800090F02360044
$GNGGA,111903.200,3204.0425,N,11847.1473,E,1,12,0.9,26.2,M,1.2,M,,0003C02030B001700A5000800090F02350968
$GNGGA,111905.200,3204.0419,N,11847.1492,E,1,12,0.9,25.7,M,1.2,M,,0003C0202F60016009C0009000B0F0235084A
$GNGGA,111907.200,3204.0413,N,11847.1511,E,1,12,0.9,25.1,M,1.2,M,,0003C0202F60016009C0009000B0F0235084A
$GNGGA,111909.200,3204.0410,N,11847.1529,E,1,12,0.9,25.0,M,1.2,M,,0003C0202EF001500990009000B0F0235083F
$GNGGA,111911.200,3204.0409,N,11847.1546,E,1,12,0.9,24.5,M,1.2,M,,0003C0202F20016009A000A000C0F02350846
$GNGGA,111913.200,3204.0407,N,11847.1565,E,1,12,0.9,25.1,M,1.2,M,,0003C0202F20016009A000A000C0F02350846
$GNGGA,111925.400,3204.0409,N,11847.1658,E,1,12,0.9,24.5,M,1.2,M,,0003C0202C400130086000A000C0F013603FC
$GNGGA,111927.400,3204.0404,N,11847.1675,E,1,13,0.8,24.6,M,1.2,M,,0003C0202C400130086000A000C0F013603FC
$GNGGA,111929.400,3204.0400,N,11847.1694,E,1,13,0.8,24.4,M,1.2,M,,0003C0202BF001200840009000B0F013604F3
$GNGGA,111931.400,3204.0401,N,11847.1710,E,1,13,0.8,24.1,M,1.2,M,,0003C0202C1001300850009000B0F013604F7
$GNGGA,111933.400,3204.0401,N,11847.1727,E,1,13,0.8,23.6,M,1.2,M,,0003C0202BF001200840009000B0F013604F3
$GNGGA,111935.400,3204.0403,N,11847.1742,E,1,13,0.8,24.0,M,1.2,M,,0003C0202BF001200840009000B0F013603F2
$GNGGA,111937.400,3204.0398,N,11847.1759,E,1,13,0.8,23.9,M,1.2,M,,0003C0202DF001400920009000B0F01360423
$GNGGA,111939.400,3204.0395,N,11847.1778,E,1,13,0.8,24.6,M,1.2,M,,0003C0202DF001400920009000B0F01360322
$GNGGA,111941.400,3204.0393,N,11847.1795,E,1,13,0.8,24.6,M,1.2,M,,0003C0202D80014008F0009000B0F01360217
$GNGGA,111943.400,3204.0391,N,11847.1812,E,2,13,0.8,24.1,M,1.2,M,,0003C0202CB001300890009000B0F01360203
$GNGGA,111945.400,3204.0392,N,11847.1828,E,2,13,0.8,24.0,M,1.2,M,,0003C020306001700A3000A000C0F0036005C
$GNGGA,111947.400,3204.0390,N,11847.1845,E,2,13,0.8,23.6,M,1.2,M,,0003C020330001900B5000A000C0F0036009A
$GNGGA,111953.400,3204.0393,N,11847.1895,E,2,13,0.8,23.4,M,1.2,M,,0003C02036C001D00CF000C000E0F003601F9
$GNGGA,111955.400,3204.0396,N,11847.1912,E,2,12,0.9,23.3,M,1.2,M,,0003C02037C001E00D6000C000E0F00360010
$GNGGA,111957.400,3204.0398,N,11847.1929,E,2,13,0.8,22.9,M,1.2,M,,0003C02038A001F00DC000C000E0F00360126
$GNGGA,111959.400,3204.0397,N,11847.1948,E,2,13,0.8,22.5,M,1.2,M,,0003C020377001E00D4000C000E0F0036010A
$GNGGA,112001.400,3204.0396,N,11847.1965,E,2,13,0.8,21.8,M,1.2,M,,0003C02035E001C00C9000C000E0F003601E4
$GNGGA,112007.400,3204.0401,N,11847.2018,E,2,13,0.8,24.0,M,1.2,M,,00000BE3C020339001A00B9000E0F003600AC
$GNGGA,112009.400,3204.0400,N,11847.2038,E,2,13,0.8,24.1,M,1.2,M,,0003C02031D001800AD000C000E0F0035098A
$GNGGA,112011.400,3204.0400,N,11847.2057,E,2,13,0.8,24.5,M,1.2,M,,0003C02031D001800AD000C000E0F0035098A
$GNGGA,112013.400,3204.0400,N,11847.2074,E,2,12,0.9,24.4,M,1.2,M,,0003C020319001800AB000C000E0E0935098C
$GNGGA,112019.400,3204.0407,N,11847.2125,E,2,12,0.9,24.9,M,1.2,M,,000A43C0203001A00B8000A000C0E093601AE
$GNGGA,112021.400,3204.0406,N,11847.2141,E,2,13,0.9,25.0,M,1.2,M,,0003C020342001B00BD000A000C0F003602B8
$GNGGA,112023.400,3204.0404,N,11847.2156,E,2,13,0.8,24.5,M,1.2,M,,0003C020359001C00C7000A000C0F003602DA
$GNGGA,112025.400,3204.0402,N,11847.2173,E,2,13,0.8,24.6,M,1.2,M,,0003C020359001C00C7000A000C0F003602DA
$GNGGA,112031.600,3204.0395,N,11847.2219,E,2,13,0.8,24.8,M,1.2,M,,00002F83C035C001C00000C000E0E093602EA
$GNGGA,112033.400,3204.0392,N,11847.2232,E,2,13,0.8,24.7,M,1.2,M,,0003C020362001D00CB000C000E0E093601F3
$GNGGA,112039.400,3204.0378,N,11847.2281,E,2,13,0.8,23.2,M,1.2,M,,0003C020379001E00D5000C000E0E09360115
$GNGGA,112041.400,3204.0372,N,11847.2296,E,2,13,0.8,22.7,M,1.2,M,,0003C020379001E00D5000C000E0E09360115
$GNGGA,112047.400,3204.0362,N,11847.2342,E,2,13,0.8,23.7,M,1.2,M,,0003C02039A002000E3000A000C0E08360343
$GNGGA,112049.600,3204.0354,N,11847.2357,E,2,12,0.9,24.2,M,1.2,M,,0003C0203A3002100E7000A000C0E08360452
$GNGGA,112051.400,3204.0348,N,11847.2368,E,2,12,0.9,24.4,M,1.2,M,,0003C0203A3002100E7000A000C0E08360452
$GNGGA,112053.400,3204.0340,N,11847.2381,E,2,13,0.8,24.7,M,1.2,M,,0003C02039A002000E3000A000C0E08360545
$GNGGA,112055.600,3204.0330,N,11847.2394,E,2,13,0.8,24.4,M,1.2,M,,0003C0203A5002100E8000A000C0E08360556
$GNGGA,112057.600,3204.0318,N,11847.2407,E,2,12,0.9,23.9,M,1.2,M,,0003C0203B1002100ED000A000C0E08360466
$GNGGA,112059.400,3204.0310,N,11847.2420,E,2,13,0.8,23.9,M,1.2,M,,0003C0203BA002200F1000A000C0E09360576
$GNGGA,112101.600,3204.0298,N,11847.2435,E,2,13,0.8,23.7,M,1.2,M,,0003C0203D8002400FE000A000C0E093604A2
ALIENTEK-HRTDT
$GNGGA,112103.400,3204.0291,N,11847.2446,E,2,13,0.8,24.0,M,1.2,M,,0003C02041400280118000A000C0E083605FE
$GNGGA,112105.400,3204.0285,N,11847.2458,E,2,13,0.8,24.3,M,1.2,M,,0003C02042600290120000A000C0E0836061A
$GNGGA,112107.600,3204.0274,N,11847.2474,E,2,13,0.8,24.1,M,1.2,M,,0003C020452002B0133000A000C0E0836065B
$GNGGA,112109.600,3204.0267,N,11847.2487,E,2,13,0.8,23.8,M,1.2,M,,0003C020489002F014B000A000C0E093606AF
$GNGGA,112111.400,3204.0258,N,11847.2499,E,2,12,0.9,23.8,M,1.2,M,,0003C02049E00300154000A000C0E093606CE
$GNGGA,112113.600,3204.0247,N,11847.2513,E,2,13,0.8,22.5,M,1.2,M,,0003C0204A000300155000A000C0E093606D1
$GNGGA,112115.600,3204.0237,N,11847.2527,E,2,13,0.8,22.4,M,1.2,M,,0003C020489002F014B000A000C0E093605AE
$GNGGA,112123.600,3204.0198,N,11847.2585,E,2,13,0.8,25.0,M,1.2,M,,0003C020442002A012C000C000E0E09360244
$GNGGA,112125.600,3204.0189,N,11847.2600,E,2,13,0.8,24.7,M,1.2,M,,0003C020442002A012C000C000E0E09360244
$GNGGA,112127.800,3204.0177,N,11847.2613,E,2,13,0.8,25.2,M,1.2,M,,0003C02046B002D013E000C000E0E09350988
$GNGGA,112139.600,3204.0125,N,11847.2690,E,2,13,0.8,25.1,M,1.2,M,,0003C0204C200320164000C000E0E08360001
$GNGGA,112141.600,3204.0119,N,11847.2702,E,2,13,0.9,26.4,M,1.2,M,,0003C0204A900310159000C000E0E083600DC
$GNGGA,112147.600,3204.0101,N,11847.2746,E,2,13,0.8,25.5,M,1.2,M,,0003C02041100270117000A000C0E073509FB
3,50,195,35,201,44,137,37*61

$BDGSV,3,3,12,202,37,232,28,204,32,121,3C0203DC00240100000A000C0E073509AB
$GNGGA,112151.600,3204.0088,N,11847.2774,E,2,13,0.8,24.6,M,1.2,M,,0003C0203F30026010A000A000C0E073508CD
$GNGGA,112153.600,3204.0082,N,11847.2790,E,2,13,0.8,24.8,M,1.2,M,,0003C020434002A0126000A000C0E0735082F
203,50,195,33,201,44,137,35*65

$BDGSV,3,3,12,202,37,232,31,204,32,123C02043100290125000A000C0E0735092B
$GNGGA,112157.600,3204.0075,N,11847.2819,E,2,13,0.8,25.7,M,1.2,M,,0003C02042600290120000A000C0E07360013
$GNGGA,112159.600,3204.0069,N,11847.2834,E,2,12,0.9,25.1,M,1.2,M,,0003C02043100290125000A000C0E07360124
3,50,195,36,201,44,137,36*63

$BDGSV,3,3,12,202,37,232,34,204,32,121,3C02043100290125000A000C0E07360225
$GNGGA,112203.800,3204.0068,N,11847.2868,E,2,13,0.8,24.6,M,1.2,M,,0003C02043100290125000A000C0E07360225
$GNGGA,112205.800,3204.0064,N,11847.2882,E,2,12,0.9,25.0,M,1.2,M,,0003C0203FD0026010E000A000C0E073603D7
3,50,195,36,201,44,137,32*64

$BDGSV,3,3,12,202,37,232,35,204,32,121,3C0203BA002200F1000A000C0E07360473
$GNGGA,112209.600,3204.0065,N,11847.2904,E,2,13,0.8,25.7,M,1.2,M,,0003C020393002000E0000A000C0E0736053A
$GNGGA,112211.600,3204.0063,N,11847.2916,E,2,13,0.8,25.9,M,1.2,M,,0003C020387001F00DB000A000C0E08360529
0,195,28,201,44,137,36*6B

$BDGSV,3,3,12,202,37,232,32,204,32,121,37,3C02039A002000E3000A000C0E08360545
$GNGGA,112254.000,3203.9937,N,11847.3153,E,2,12,0.9,25.1,M,1.2,M,,0003C020312001800A8000C000E0E0936007A
$GNGGA,112256.000,3203.9937,N,11847.3153,E,2,12,0.9,25.1,M,1.2,M,,0003C02030B001700A5000C000E0E0936006F
$GNGGA,112258.000,3203.9937,N,11847.3153,E,2,12,0.9,25.1,M,1.2,M,,0003C020304001700A2000C000E0F00350965
$GNGGA,112300.000,3203.9936,N,11847.3157,E,2,12,1.0,24.8,M,1.2,M,,0003C0202F90016009D000C000E0F00350852
$GNGGA,112302.000,3203.9928,N,11847.3168,E,2,12,0.9,24.1,M,1.2,M,,0003C0202FB0016009E000C000E0F00350754
ALIENTEK-HRTDT
$GNGGA,112304.000,3203.9922,N,11847.3182,E,2,12,0.9,24.4,M,1.2,M,,0003C020310001700A7000C000E0F00350774
$GNGGA,112306.000,3203.9919,N,11847.3195,E,2,13,0.9,25.4,M,1.2,M,,0003C020302001700A1000C000E0F0035065F
$GNGGA,112406.200,3203.9783,N,11847.3489,E,0,00,0.0,28.4,M,0.0,M,,0003C0201A000010007000000000E09360337
$GNGGA,112408.200,3203.9857,N,11847.3502,E,1,09,1.0,20.9,M,1.2,M,,0003C0201A000010007000200020E0936033B
$GNGGA,112410.200,3203.9855,N,11847.3501,E,1,10,1.0,21.9,M,1.2,M,,0003C0201A000010007000200020F00360232
$GNGGA,112412.200,3203.9855,N,11847.3501,E,1,12,0.9,21.9,M,1.2,M,,0003C0201A000010007000300030F00360133
$GNGGA,112414.200,3203.9838,N,11847.3499,E,1,13,0.8,31.5,M,1.2,M,,0003C0201A000010007000400040E0936023E
$GNGGA,112416.200,3203.9832,N,11847.3508,E,1,13,0.9,31.0,M,1.2,M,,0003C0201A000010007000600070E09360243
$GNGGA,112418.200,3203.9820,N,11847.3517,E,1,13,0.9,29.0,M,1.2,M,,0003C0201A000010007000500060E09360241
$GNGGA,112420.200,3203.9810,N,11847.3529,E,1,13,0.9,28.0,M,1.2,M,,0003C0201A000010007000600070E09360142
$GNGGA,112422.200,3203.9807,N,11847.3539,E,1,13,0.8,26.5,M,1.2,M,,0003C0201A000010007000600070E09360142
$GNGGA,112424.200,3203.9802,N,11847.3551,E,1,13,0.8,25.8,M,1.2,M,,0003C0201A000010007000700080E09360043
$GNGGA,112426.200,3203.9796,N,11847.3563,E,1,13,0.8,25.5,M,1.2,M,,0003C0201A000010007000700080E09360043
$GNGGA,112428.200,3203.9784,N,11847.3577,E,1,13,0.8,23.9,M,1.2,M,,0003C0201A000010007000800090E09360045
$GNGGA,112430.200,3203.9767,N,11847.3585,E,1,13,0.8,22.3,M,1.2,M,,0003C0201A0000100070009000B0E09350950
$GNGGA,112432.200,3203.9745,N,11847.3594,E,1,12,0.9,21.3,M,1.2,M,,0003C0201A0000100070009000B0E0835084E
$GNGGA,112434.200,3203.9722,N,11847.3597,E,1,12,0.9,20.9,M,1.2,M,,0003C0201A0000100070009000B0E0835084E
$GNGGA,112436.400,3203.9705,N,11847.3600,E,1,12,0.9,20.3,M,1.2,M,,0003C0201A000010007000A000C0E0835074F
$GNGGA,112438.400,3203.9695,N,11847.3606,E,1,12,0.9,19.5,M,1.2,M,,0003C0201A000010007000A000C0E0835074F
$GNGGA,112440.400,3203.9689,N,11847.3618,E,1,13,0.8,20.2,M,1.2,M,,0003C0201A000010007000A000C0E08350951
$GNGGA,112442.400,3203.9682,N,11847.3627,E,1,13,0.8,19.7,M,1.2,M,,0003C0201A000010007000A000C0E0836014A
$GNGGA,112444.400,3203.9677,N,11847.3635,E,1,12,0.9,19.5,M,1.2,M,,0003C0201A000010007000A000C0E0836034C
$GNGGA,112446.400,3203.9675,N,11847.3641,E,1,13,0.9,20.3,M,1.2,M,,0003C0201A000010007000A000C0E0936034D
$GNGGA,112448.400,3203.9669,N,11847.3647,E,1,13,1.0,21.2,M,1.2,M,,0003C0201A000010007000A000C0E0836024B
$GNGGA,112450.400,3203.9665,N,11847.3655,E,1,13,0.8,21.2,M,1.2,M,,0003C0201A000010007000A000C0E0936014B
$GNGGA,112452.400,3203.9664,N,11847.3657,E,1,13,0.9,20.4,M,1.2,M,,0003C0201A000010007000A000C0E0936004A
$GNGGA,112500.400,3203.9655,N,11847.3672,E,1,12,0.9,22.9,M,1.2,M,,0003C0201A000010007000C000E0E09350754
$GNGGA,112502.400,3203.9649,N,11847.3682,E,1,12,0.9,23.0,M,1.2,M,,0003C0201A000010007000C000E0F0035074C
$GNGGA,112510.400,3203.9642,N,11847.3693,E,1,12,0.9,23.6,M,1.2,M,,0003C0201A000010007000A000C0F01350648
$GNGGA,112512.400,3203.9640,N,11847.3698,E,1,12,0.9,24.0,M,1.2,M,,0003C0201A000010007000A000C0F01350547
$GNGGA,112514.400,3203.9635,N,11847.3704,E,1,13,0.8,23.9,M,1.2,M,,0003C0201A000010007000A000C0F01350547
$GNGGA,112516.400,3203.9626,N,11847.3715,E,1,13,0.8,23.5,M,1.2,M,,0003C0201A000010007000A000C0F01350446
$GNGGA,112518.400,3203.9622,N,11847.3727,E,1,13,0.8,24.2,M,1.2,M,,0003C0201A000010007000A000C0F01350446
