$GNGGA,032637.600,3203.6310,N,11847.1015,E,0,00,0.0,14.2,M,0.0,M,,00000000000940D00201D020008D80D0020D8
204,32,122,38,205,18,255,*6A

$GNRMC,032639.400,A,3203.6287,N,11847.000000000940D00201D020008D80D0020D8
$GNGGA,032641.600,3203.6286,N,11847.0961,E,1,09,2.0,52.0,M,1.2,M,,00000000000940D00201D020008D80D0020D8
$GNGGA,032643.800,3203.6280,N,11847.0957,E,1,08,2.7,69.6,M,1.2,M,,0003C0201A000010007000500061305230330
$GNGGA,032645.800,3203.6257,N,11847.0915,E,1,08,2.7,73.0,M,1.2,M,,0003C0201A000010007000800091305230437
$GNGGA,032647.800,3203.6232,N,11847.0918,E,1,08,2.7,81.3,M,1.2,M,,0003C0201A000010007000A000C130523053D
$GNGGA,032649.800,3203.6218,N,11847.0931,E,1,08,2.3,89.8,M,1.2,M,,0003C0201A000010007000A000C130423053C
$GNGGA,032653.800,3203.6203,N,11847.0946,E,1,08,2.3,101.6,M,1.2,M,,003C0201A000010007000A000C130423063D
$GNGGA,032655.800,3203.6195,N,11847.0952,E,1,08,2.3,105.2,M,1.2,M,,003C0201A000010007000A000C130423073E
$GNGGA,032657.800,3203.6177,N,11847.0959,E,1,08,5.5,109.0,M,1.2,M,,003C0201A0000100070009000B130323083C
$GNGGA,032659.800,3203.6158,N,11847.0958,E,1,09,2.3,112.3,M,1.2,M,,003C0201A00001000700080009130323093A
$GNGGA,032701.800,3203.6141,N,11847.0966,E,1,09,2.3,113.2,M,1.2,M,,003C0201A00001000700080009130323093A
$GNGGA,032703.800,3203.6116,N,11847.0968,E,1,09,2.3,114.7,M,1.2,M,,003C0201A000010007000800091303230839
$GNGGA,032705.800,3203.6097,N,11847.0975,E,1,09,2.3,118.2,M,1.2,M,,003C0201A000010007000800091304230638
$GNGGA,032707.800,3203.6077,N,11847.0988,E,1,09,2.3,122.6,M,1.2,M,,003C0201A000010007000800091304230335
$GNGGA,032709.800,3203.6068,N,11847.0985,E,1,09,2.6,123.8,M,1.2,M,,003C0201A000010007000800091305230033
$GNGGA,032711.800,3203.6063,N,11847.0962,E,1,09,1.9,117.5,M,1.2,M,,003C0201A00001000700080009130922083E
$GNGGA,032713.800,3203.6061,N,11847.0932,E,1,10,1.4,113.9,M,1.2,M,,003C0201A000010007000800091401220534
$GNGGA,032715.800,3203.6065,N,11847.0925,E,1,10,1.4,109.4,M,1.2,M,,003C0201A000010007000800091402220131
$GNGGA,032717.800,3203.6059,N,11847.0874,E,1,10,1.4,97.8,M,1.2,M,,0003C0201A000010007000800091403210939
$GNGGA,032719.800,3203.6066,N,11847.0862,E,1,11,1.6,90.2,M,1.2,M,,0003C0201A000010007000800091403210939
$GNGGA,032721.800,3203.6064,N,11847.0853,E,1,10,2.0,88.1,M,1.2,M,,0003C0201A000010007000800091405210436
$GNGGA,032723.800,3203.6056,N,11847.0838,E,1,11,1.4,83.9,M,1.2,M,,0003C0201A000010007000800091405210436
$GNGGA,032725.800,3203.6057,N,11847.0813,E,1,12,1.1,84.1,M,1.2,M,,0003C0201A000010007000800091407210135
$GNGGA,032727.800,3203.6059,N,11847.0803,E,1,13,1.0,85.4,M,1.2,M,,0003C0201A00001000700080009140720083B
$GNGGA,032729.800,3203.6062,N,11847.0786,E,1,14,1.0,77.1,M,1.2,M,,0003C0201A00001000700080009140620083A
$GNGGA,032731.800,3203.6060,N,11847.0774,E,1,14,1.0,78.5,M,1.2,M,,0003C0201A000010007000800091405200637
$GNGGA,032733.800,3203.6054,N,11847.0750,E,1,13,1.6,80.5,M,1.2,M,,0003C0201A000010007000800091404200535
$GNGGA,032740.000,3203.6056,N,11847.0721,E,1,13,1.5,78.8,M,1.2,M,,0003C0201A000010007000800091407200437
$GNGGA,032742.000,3203.6056,N,11847.0703,E,1,12,1.4,80.2,M,1.2,M,,0003C0201A000010007000800091407200235
$GNGGA,032744.000,3203.6052,N,11847.0689,E,1,13,1.3,80.9,M,1.2,M,,0003C0201A000010007000800091407200134
$GNGGA,032746.000,3203.6052,N,11847.0680,E,1,13,1.5,83.2,M,1.2,M,,0003C0201A000010007000800091408200034
$GNGGA,032748.000,3203.6047,N,11847.0663,E,1,14,1.1,87.1,M,1.2,M,,0003C0201A0000100070008000915001F0834
$GNGGA,032750.000,3203.6031,N,11847.0630,E,1,13,1.5,90.2,M,1.2,M,,0003C0201A0000100070009000B15031F0638
$GNGGA,032752.000,3203.6024,N,11847.0615,E,1,12,1.5,88.8,M,1.2,M,,0003C0201A0000100070009000B15021F0334
$GNGGA,032754.000,3203.6040,N,11847.0614,E,1,13,1.5,79.7,M,1.2,M,,0003C0201A0000100070009000B15041F0134
$GNGGA,032756.000,3203.6034,N,11847.0605,E,1,13,1.3,81.1,M,1.2,M,,0003C0201A0000100070008000915071E083A
$GNGGA,032758.000,3203.6028,N,11847.0590,E,1,13,1.3,82.5,M,1.2,M,,0003C0201A0000100070008000916011E0532
$GNGGA,032800.000,3203.6024,N,11847.0563,E,1,13,1.5,84.9,M,1.2,M,,0003C0201A0000100070008000916041E0131
$GNGGA,032802.000,3203.6013,N,11847.0547,E,1,13,1.5,88.3,M,1.2,M,,0003C0201A0000100070008000916061D0738
ALIENTEK-HRTDT
$GNGGA,032804.000,3203.6015,N,11847.0531,E,1,13,1.3,89.5,M,1.2,M,,0003C0201A0000100070008000916061D0334
$GNGGA,032806.000,3203.6010,N,11847.0517,E,1,13,1.5,90.7,M,1.2,M,,0003C0201A0000100070008000916021D002D
$GNGGA,032808.000,3203.6007,N,11847.0504,E,1,13,1.5,93.5,M,1.2,M,,0003C0201A0000100070008000916011D002C
$GNGGA,032810.000,3203.6008,N,11847.0494,E,1,13,1.3,96.4,M,1.2,M,,0003C0201A0000100070008000916051D0030
$GNGGA,032812.000,3203.6004,N,11847.0473,E,1,14,1.0,98.3,M,1.2,M,,0003C0201A0000100070008000916041C0937
$GNGGA,032814.000,3203.6009,N,11847.0465,E,1,13,1.3,99.4,M,1.2,M,,0003C0201A0000100070008000916071C0839
$GNGGA,032816.000,3203.6012,N,11847.0454,E,1,13,1.3,101.5,M,1.2,M,,003C0201A0000100070008000916061C0737
$GNGGA,032818.000,3203.6014,N,11847.0445,E,1,13,1.3,103.6,M,1.2,M,,003C0201A0000100070007000816041C0531
$GNGGA,032820.000,3203.6011,N,11847.0428,E,1,13,1.0,102.7,M,1.2,M,,003C0201A0000100070007000816021C0630
$GNGGA,032822.000,3203.6017,N,11847.0422,E,1,13,1.0,97.9,M,1.2,M,,0003C0201A0000100070007000816001C072F
$GNGGA,032824.000,3203.6033,N,11847.0411,E,1,13,1.0,91.6,M,1.2,M,,0003C0201A0000100070006000716001C082E
$GNGGA,032826.000,3203.6057,N,11847.0411,E,1,13,1.0,94.0,M,1.2,M,,0003C0201A0000100070006000716001C082E
$GNGGA,032828.000,3203.6062,N,11847.0402,E,1,13,1.0,89.9,M,1.2,M,,0003C0201A0000100070006000715071D022F
$GNGGA,032830.200,3203.6077,N,11847.0392,E,1,13,1.0,87.3,M,1.2,M,,0003C0201A0000100070006000715071D022F
$GNGGA,032832.200,3203.6083,N,11847.0379,E,1,13,1.0,91.5,M,1.2,M,,0003C0201A0000100070006000715061D0632
$GNGGA,032834.200,3203.6091,N,11847.0367,E,1,13,1.0,84.4,M,1.2,M,,0003C0201A0000100070006000715071D0835
$GNGGA,032836.200,3203.6102,N,11847.0347,E,1,12,1.3,75.5,M,1.2,M,,0003C0201A0000100070006000715061D0935
$GNGGA,032838.200,3203.6120,N,11847.0318,E,1,13,1.0,73.1,M,1.2,M,,0003C0201A90001000B0006000715061E003A
$GNGGA,032840.200,3203.6127,N,11847.0280,E,1,13,1.0,76.9,M,1.2,M,,0003C0201AB0001000C0006000715051E023E
$GNGGA,032844.200,3203.6160,N,11847.0236,E,1,12,1.1,73.2,M,1.2,M,,0003C0201B00002000E0006000715051E0246
$GNGGA,032846.200,3203.6174,N,11847.0206,E,1,13,1.0,73.2,M,1.2,M,,0003C0201B20002000F0007000815061E014B
$GNGGA,032848.200,3203.6177,N,11847.0189,E,1,13,1.0,70.2,M,1.2,M,,0003C0201B4000200100007000815051E014D
$GNGGA,032850.200,3203.6187,N,11847.0160,E,1,13,1.0,69.1,M,1.2,M,,0003C0201B7000200110008000915041E0253
$GNGGA,032852.200,3203.6200,N,11847.0137,E,1,12,1.1,66.1,M,1.2,M,,0003C0201B4000200100008000915041E0451
$GNGGA,032854.200,3203.6212,N,11847.0113,E,1,13,1.0,64.4,M,1.2,M,,0003C0201A90001000B0009000B15051E0545
$GNGGA,032856.200,3203.6209,N,11847.0099,E,1,13,1.0,64.7,M,1.2,M,,0003C0201AB0001000C0009000B15061E0549
$GNGGA,032900.200,3203.6203,N,11847.0065,E,1,13,1.2,59.9,M,1.2,M,,0003C0201B00002000E0009000B15071E0451
$GNGGA,032902.200,3203.6203,N,11847.0048,E,1,13,1.0,60.0,M,1.2,M,,0003C0201B20002000F0009000B15081E0253
$GNGGA,032904.200,3203.6202,N,11847.0032,E,1,13,1.0,57.7,M,1.2,M,,0003C0201B4000200100008000916021E004C
$GNGGA,032906.200,3203.6199,N,11847.0011,E,1,13,1.1,56.1,M,1.2,M,,0003C0201A70001000A0007000816051D0941
$GNGGA,032908.200,3203.6200,N,11846.9994,E,1,12,1.1,54.5,M,1.2,M,,0003C0201B4000200100007000816071D0553
$GNGGA,032910.200,3203.6196,N,11846.9976,E,1,12,1.1,55.2,M,1.2,M,,0003C0201B4000200100007000816071D0553
$GNGGA,032912.200,3203.6194,N,11846.9952,E,1,12,1.1,55.1,M,1.2,M,,0003C0201B4000200100007000816071D0553
$GNGGA,032914.200,3203.6194,N,11846.9941,E,1,11,1.2,53.5,M,1.2,M,,0003C0201E0000500230006000716091D0191
$GNGGA,032916.200,3203.6202,N,11846.9925,E,1,11,1.2,53.3,M,1.2,M,,0003C0201E0000500230006000716091D0191
$GNGGA,032918.200,3203.6207,N,11846.9910,E,1,11,1.2,55.7,M,1.2,M,,0003C0201E0000500230006000716091D0191
$GNGGA,032920.200,3203.6212,N,11846.9899,E,1,11,1.2,53.0,M,1.2,M,,0003C0201DB000400210006000717011C0484
$GNGGA,032922.200,3203.6217,N,11846.9885,E,1,11,1.2,56.0,M,1.2,M,,0003C0201DB000400210006000717011C0484
$GNGGA,032924.200,3203.6220,N,11846.9870,E,1,11,1.2,57.3,M,1.2,M,,0003C0201DB000400210006000717011C0484
$GNGGA,032926.200,3203.6236,N,11846.9859,E,1,11,1.2,61.3,M,1.2,M,,0003C0201DB000400210007000816061C0288
$GNGGA,032928.200,3203.6244,N,11846.9850,E,1,11,1.2,61.8,M,1.2,M,,0003C0201C9000300190007000816031C036B
$GNGGA,032930.400,3203.6233,N,11846.9829,E,1,11,1.4,60.2,M,1.2,M,,0003C0201C9000300190007000816031C036B
$GNGGA,032932.200,3203.6241,N,11846.9820,E,1,11,1.2,64.5,M,1.2,M,,0003C0201C7000300180008000915091C0773
$GNGGA,032934.200,3203.6259,N,11846.9813,E,1,11,1.2,64.4,M,1.2,M,,0003C0201C9000300190008000916001D0068
$GNGGA,032936.400,3203.6274,N,11846.9816,E,1,11,1.2,70.5,M,1.2,M,,0003C0201C7000300180008000915091D026F
$GNGGA,032938.200,3203.6271,N,11846.9805,E,1,11,1.3,66.4,M,1.2,M,,0003C0201D20004001D0008000916031D037C
$GNGGA,032940.400,3203.6288,N,11846.9803,E,1,11,1.2,70.5,M,1.2,M,,0003C0201D70004001F0008000916061D0386
$GNGGA,032942.400,3203.6282,N,11846.9781,E,1,11,1.3,67.0,M,1.2,M,,0003C0201E0000500230008000916091D0296
$GNGGA,032944.200,3203.6271,N,11846.9760,E,1,11,1.3,63.2,M,1.2,M,,0003C0201D70004001F0008000916071D0084
$GNGGA,032946.200,3203.6278,N,11846.9755,E,1,11,1.2,66.9,M,1.2,M,,0003C0201CE0003001B0008000917001C0877
$GNGGA,032948.400,3203.6288,N,11846.9743,E,1,11,1.3,69.1,M,1.2,M,,0003C0201C9000300190008000917031C0671
$GNGGA,032950.400,3203.6279,N,11846.9718,E,1,12,1.3,67.8,M,1.2,M,,0003C0201D20004001D0008000917051C037E
$GNGGA,032952.200,3203.6272,N,11846.9694,E,1,12,1.3,66.0,M,1.2,M,,0003C0201D70004001F0008000917021C007F
$GNGGA,032954.400,3203.6262,N,11846.9671,E,1,12,1.3,60.3,M,1.2,M,,0003C020203000700320008000917001C02C2
$GNGGA,032956.200,3203.6255,N,11846.9652,E,1,12,1.3,57.4,M,1.2,M,,0003C020203000700320008000917001C02C2
$GNGGA,032958.400,3203.6250,N,11846.9633,E,1,11,1.3,54.8,M,1.2,M,,0003C0201F50006002C0008000916061C06B5
$GNGGA,033000.400,3203.6249,N,11846.9609,E,1,13,1.1,52.6,M,1.2,M,,0003C02024A000B00510008000916031C0733
$GNGGA,033002.400,3203.6245,N,11846.9587,E,1,11,1.3,49.8,M,1.2,M,,0003C02027F000E00680008000916021D0580
ALIENTEK-HRTDT
$GNGGA,033008.200,3203.6234,N,11846.9527,E,1,12,1.3,48.3,M,1.2,M,,0003C02023E000A004C0007000816031D061F
$GNGGA,033010.200,3203.6230,N,11846.9512,E,1,11,1.3,48.4,M,1.2,M,,0003C02021A0008003C0007000816011D05E6
$GNGGA,033012.400,3203.6224,N,11846.9493,E,1,12,1.3,46.8,M,1.2,M,,0003C0202170008003B0007000815091D04E8
$GNGGA,033014.400,3203.6220,N,11846.9475,E,1,12,1.3,45.7,M,1.2,M,,0003C020207000700340007000815081D04CF
$GNGGA,033016.400,3203.6215,N,11846.9455,E,1,11,1.2,43.1,M,1.2,M,,0003C020207000700340007000815071D04CE
$GNGGA,033018.400,3203.6218,N,11846.9435,E,1,11,1.3,44.6,M,1.2,M,,0003C020207000700340007000815071D04CE
$GNGGA,033020.400,3203.6217,N,11846.9415,E,1,12,1.3,44.8,M,1.2,M,,0003C02021E0008003E0007000815061D07F2
$GNGGA,033022.400,3203.6218,N,11846.9394,E,1,12,1.1,42.7,M,1.2,M,,0003C02021E0008003E0007000815051D08F2
,43,138,32,202,38,234,24,204,32,122,28,212,00,000,29*6A

$GNRMC,033023C02021A0008003C0007000815051D08EC
$GNGGA,033026.600,3203.6219,N,11846.9359,E,1,11,1.2,41.2,M,1.2,M,,0003C020235000A00480008000915031D0815
43,138,33,202,38,234,25,204,32,122,29,212,00,000,29*6B

$GNRMC,0330303C020278000E00650008000915021E0071
$GNGGA,033038.600,3203.6233,N,11846.9274,E,1,12,1.2,54.9,M,1.2,M,,0003C020273000E00630009000B15031E006E
GNGGA,033040.600,3203.6236,N,11846.9262,E,1,12,1.4,58.9,M,1.2,M,,00003C020241000B004D0009000B15001E0020
2,201,43,138,32,202,38,234,36,204,32,122,29,212,00,000,31*61

$GNRMC,3C020209000700350009000B14091D09DC
GNGGA,033044.600,3203.6226,N,11846.9245,E,1,15,1.0,59.5,M,1.2,M,,00003C0201E9000500270009000B14091D09AB
$GNGGA,033046.400,3203.6230,N,11846.9235,E,1,15,0.9,56.9,M,1.2,M,,0003C0201DB000400210009000B15011E0087
,12,201,43,138,32,202,38,234,39,204,32,122,31,212,00,000,31*67

$GNRM3C0201C7000300180009000B15061E006E
$GNGGA,033050.400,3203.6238,N,11846.9219,E,1,15,0.9,49.9,M,1.2,M,,0003C0201CE0003001B0008000915041D087A
$GNGGA,033052.400,3203.6244,N,11846.9215,E,1,15,0.9,48.2,M,1.2,M,,0003C0201BB000200130008000915031D065B
2,201,43,138,40,202,38,234,33,204,32,122,36,212,00,000,32*6C

$GNRMC,3C0201C2000300160008000915041D0465
$GNGGA,033056.400,3203.6260,N,11846.9219,E,1,15,0.9,52.2,M,1.2,M,,0003C0201D20004001D0008000915041D047D
$GNGGA,033058.400,3203.6272,N,11846.9222,E,1,15,0.9,54.8,M,1.2,M,,0003C0201E0000500230008000915061D0494
,12,201,43,138,34,202,38,234,33,204,32,122,30,212,00,000,38*63

$GNRM3C0201DE000400220008000915091D0392
$GNGGA,033102.400,3203.6291,N,11846.9225,E,1,14,0.9,57.4,M,1.2,M,,0003C0201E0000500230008000915081D0294
$GNGGA,033104.400,3203.6299,N,11846.9231,E,1,15,0.9,55.5,M,1.2,M,,0003C0201E0000500230008000915081D0294
2,201,43,138,32,202,38,234,32,204,32,122,30,212,00,000,33*6F

$GNRMC,3C0201E0000500230009000B15081D0095
$GNGGA,033110.000,3203.6311,N,11846.9234,E,0,00,0.0,56.1,M,0.0,M,,0003C0201A0000100070000000015061C0927
$GNGGA,033112.000,3203.6379,N,11846.9395,E,1,09,1.3,58.5,M,1.2,M,,0003C0201A0000100070002000215061D0124
$GNGGA,033114.000,3203.6393,N,11846.9387,E,1,11,1.0,48.8,M,1.2,M,,0003C0201A0000100070002000215041D0324
$GNGGA,033116.000,3203.6397,N,11846.9375,E,1,13,1.1,37.8,M,1.2,M,,0003C0201A0000100070003000315031D0325
$GNGGA,033118.000,3203.6406,N,11846.9373,E,1,12,1.0,34.0,M,1.2,M,,0003C0201A0000100070004000415041D0429
$GNGGA,033120.000,3203.6430,N,11846.9355,E,1,13,0.9,32.7,M,1.2,M,,0003C0201A0000100070004000415051D052B
$GNGGA,033122.000,3203.6457,N,11846.9342,E,1,13,0.9,34.7,M,1.2,M,,0003C0201A0000100070003000315041D0528
$GNGGA,033124.000,3203.6470,N,11846.9339,E,1,14,1.1,34.8,M,1.2,M,,0003C0201A0000100070004000415041D062B
$GNGGA,033126.000,3203.6479,N,11846.9336,E,1,14,0.9,33.9,M,1.2,M,,0003C0201A0000100070005000615041D0931
$GNGGA,033128.000,3203.6494,N,11846.9327,E,1,14,1.1,32.9,M,1.2,M,,0003C0201A0000100070005000615041E012A
$GNGGA,033130.000,3203.6513,N,11846.9314,E,1,13,1.1,32.3,M,1.2,M,,0003C0201A0000100070006000715051D0934
$GNGGA,033132.000,3203.6532,N,11846.9309,E,1,14,1.1,31.3,M,1.2,M,,0003C0201A0000100070006000715051D0934
$GNGGA,033134.000,3203.6560,N,11846.9299,E,1,13,1.1,32.2,M,1.2,M,,0003C0201A0000100070007000815041E002D
$GNGGA,033136.000,3203.6584,N,11846.9301,E,1,14,1.1,36.2,M,1.2,M,,0003C0201A0000100070007000815041E002D
$GNGGA,033138.000,3203.6606,N,11846.9297,E,1,14,1.1,36.6,M,1.2,M,,0003C0201A0000100070007000815041E0936
$GNGGA,033140.000,3203.6629,N,11846.9296,E,1,14,1.1,37.7,M,1.2,M,,0003C0201A0000100070007000815041E0633
$GNGGA,033142.000,3203.6647,N,11846.9294,E,1,14,1.4,38.1,M,1.2,M,,0003C0201A0000100070007000815041E0633
$GNGGA,033144.200,3203.6664,N,11846.9284,E,1,14,1.4,36.4,M,1.2,M,,0003C0201A0000100070007000815041E0633
$GNGGA,033146.200,3203.6677,N,11846.9280,E,1,14,1.1,35.7,M,1.2,M,,0003C0201A0000100070007000815041E0633
$GNGGA,033148.200,3203.6691,N,11846.9272,E,1,14,1.4,33.9,M,1.2,M,,0003C0201A0000100070007000816051D0533
$GNGGA,033150.200,3203.6707,N,11846.9263,E,1,15,0.9,32.9,M,1.2,M,,0003C0201A0000100070007000816071D0131
$GNGGA,033152.200,3203.6716,N,11846.9264,E,1,15,1.2,34.1,M,1.2,M,,0003C0201A0000100070007000816051C0633
$GNGGA,033154.200,3203.6733,N,11846.9262,E,1,15,1.0,34.5,M,1.2,M,,0003C0201A0000100070007000816041C0632
$GNGGA,033156.200,3203.6749,N,11846.9260,E,1,14,1.3,34.2,M,1.2,M,,0003C0201A0000100070007000816031C0631
$GNGGA,033158.200,3203.6762,N,11846.9262,E,1,14,1.0,35.2,M,1.2,M,,0003C0201A0000100070007000816021C052F
$GNGGA,033200.200,3203.6775,N,11846.9259,E,1,14,1.0,34.6,M,1.2,M,,0003C0201A0000100070007000816011C052E
$GNGGA,033202.200,3203.6792,N,11846.9256,E,1,14,0.9,33.5,M,1.2,M,,0003C0201A0000100070007000816011C052E
$GNGGA,033204.200,3203.6806,N,11846.9256,E,1,14,1.1,35.8,M,1.2,M,,0003C0201A0000100070007000816011C0831
ALIENTEK-HRTDT
$GNGGA,033206.200,3203.6820,N,11846.9255,E,1,14,0.9,34.6,M,1.2,M,,0003C0201A0000100070007000816021C0933
$GNGGA,033208.200,3203.6834,N,11846.9253,E,1,14,0.9,35.5,M,1.2,M,,0003C0201A0000100070007000816071C0837
$GNGGA,033210.200,3203.6846,N,11846.9254,E,1,14,0.9,37.1,M,1.2,M,,0003C0201A0000100070007000817021C0631
$GNGGA,033212.200,3203.6861,N,11846.9247,E,1,14,1.0,35.6,M,1.2,M,,0003C0201A0000100070007000817041C0330
$GNGGA,033214.200,3203.6877,N,11846.9236,E,1,14,1.0,34.5,M,1.2,M,,0003C0201A0000100070007000817071B0837
$GNGGA,033216.200,3203.6890,N,11846.9228,E,1,14,0.9,33.6,M,1.2,M,,0003C0201A0000100070007000817041C002D
$GNGGA,033218.200,3203.6903,N,11846.9221,E,1,14,0.9,33.1,M,1.2,M,,0003C0201A0000100070007000817031C032F
$GNGGA,033220.200,3203.6914,N,11846.9211,E,1,15,0.9,31.9,M,1.2,M,,0003C0201A0000100070007000817021C032E
$GNGGA,033222.200,3203.6930,N,11846.9205,E,1,14,0.9,30.3,M,1.2,M,,0003C0201A0000100070008000917001B0933
$GNGGA,033224.200,3203.6945,N,11846.9195,E,1,14,0.9,29.1,M,1.2,M,,0003C0201A0000100070008000917001B0933
$GNGGA,033226.200,3203.6956,N,11846.9186,E,1,15,0.8,29.9,M,1.2,M,,0003C0201A0000100070008000917001B0933
$GNGGA,033228.200,3203.6974,N,11846.9176,E,1,15,0.9,29.1,M,1.2,M,,0003C0201A0000100070008000917001B0933
$GNGGA,033230.200,3203.6988,N,11846.9170,E,1,15,0.8,27.8,M,1.2,M,,0003C0201A0000100070008000917001B0933
$GNGGA,033232.200,3203.7001,N,11846.9167,E,1,15,0.8,25.4,M,1.2,M,,0003C0201A0000100070009000B16071B073A
$GNGGA,033234.200,3203.7014,N,11846.9166,E,1,15,0.9,24.6,M,1.2,M,,0003C0201A0000100070009000B16061B083A
$GNGGA,033236.200,3203.7026,N,11846.9160,E,1,14,0.9,24.5,M,1.2,M,,0003C0201A0000100070009000B16061B083A
$GNGGA,033238.200,3203.7038,N,11846.9156,E,1,14,0.9,25.7,M,1.2,M,,0003C0201A0000100070009000B16061B083A
$GNGGA,033240.200,3203.7052,N,11846.9149,E,1,14,0.9,26.1,M,1.2,M,,0003C0201A0000100070009000B16061B083A
$GNGGA,033242.400,3203.7066,N,11846.9145,E,1,14,0.9,25.2,M,1.2,M,,0003C0201A0000100070009000B16061B083A
$GNGGA,033244.200,3203.7079,N,11846.9144,E,1,14,0.9,24.5,M,1.2,M,,0003C0201A0000100070009000B16061B083A
$GNGGA,033246.200,3203.7091,N,11846.9142,E,1,14,0.9,22.5,M,1.2,M,,0003C0201A0000100070009000B16061B083A
$GNGGA,033248.400,3203.7110,N,11846.9137,E,1,14,0.9,20.7,M,1.2,M,,0003C0201A0000100070007000816031C0631
$GNGGA,033250.200,3203.7122,N,11846.9138,E,1,15,0.8,19.4,M,1.2,M,,0003C0201A0000100070007000816021C0731
$GNGGA,033252.400,3203.7137,N,11846.9140,E,1,14,0.9,18.1,M,1.2,M,,0003C0201A0000100070007000816021C0731
$GNGGA,033254.400,3203.7152,N,11846.9142,E,1,14,0.9,18.5,M,1.2,M,,0003C0201A0000100070007000816011C0932
$GNGGA,033256.200,3203.7168,N,11846.9142,E,1,14,0.9,20.0,M,1.2,M,,0003C0201A0000100070007000816011C0932
$GNGGA,033258.200,3203.7182,N,11846.9137,E,1,14,0.9,20.1,M,1.2,M,,0003C0201A0000100070008000915091C0739
$GNGGA,033300.400,3203.7200,N,11846.9136,E,1,14,0.9,23.1,M,1.2,M,,0003C0201A0000100070008000915091C083A
$GNGGA,033302.200,3203.7216,N,11846.9141,E,1,13,0.9,25.8,M,1.2,M,,0003C0201A0000100070008000916011C0732
$GNGGA,033304.200,3203.7233,N,11846.9139,E,1,14,0.9,26.6,M,1.2,M,,0003C0201A0000100070008000916031C0734
$GNGGA,033306.400,3203.7250,N,11846.9138,E,1,13,1.0,29.3,M,1.2,M,,0003C0201A0000100070009000B16021C0534
$GNGGA,033308.200,3203.7266,N,11846.9131,E,1,14,0.9,28.9,M,1.2,M,,0003C0201A0000100070009000B16011C0634
$GNGGA,033310.200,3203.7279,N,11846.9126,E,1,13,1.0,29.0,M,1.2,M,,0003C0201B7000200110009000B16011C0656
$GNGGA,033312.400,3203.7288,N,11846.9113,E,1,14,0.9,28.8,M,1.2,M,,0003C0201AB0001000C0009000B16071C064A
$GNGGA,033318.400,3203.7313,N,11846.9095,E,1,14,0.9,32.3,M,1.2,M,,0003C0201C9000300190009000B17021B0975
$GNGGA,033320.200,3203.7322,N,11846.9097,E,1,13,0.9,34.8,M,1.2,M,,0003C0201BB000200130009000B17031B075F
$GNGGA,033326.400,3203.7349,N,11846.9093,E,1,14,0.9,37.5,M,1.2,M,,0003C020293001000710008000917081B03A2
$GNGGA,033328.600,3203.7355,N,11846.9089,E,1,11,1.0,39.1,M,1.2,M,,0003C020322001900AF0008000917051B0376
$GNGGA,033330.400,3203.7365,N,11846.9077,E,1,13,0.9,40.3,M,1.2,M,,0003C02039C002000E40008000917031B062D
$GNGGA,033332.400,3203.7374,N,11846.9067,E,1,13,1.0,41.8,M,1.2,M,,0003C0203D1002300FB0008000917011B087C
$GNGGA,033334.400,3203.7386,N,11846.9058,E,1,13,0.9,46.3,M,1.2,M,,0003C020431002901250009000B17001C0009
,219,43,051,*68

$BDGSV,3,3,12,201,43,138,29,202,38,234,34,204,32,1223C020434002A0126000A000C16091C0018
$GNGGA,033338.400,3203.7414,N,11846.9080,E,1,15,0.8,45.0,M,1.2,M,,0003C020393002000E0000A000C17001C001D
9,43,051,*69

$BDGSV,3,3,12,201,43,138,29,202,38,234,30,204,32,122,253C0202C400130086000C000E17051B06F4
$GNGGA,033346.400,3203.7482,N,11846.9073,E,1,15,0.9,36.0,M,1.2,M,,0003C020278000E0065000E001118001B017E
,219,43,051,*6D

$BDGSV,3,3,12,201,43,138,33,202,38,234,31,204,32,1223C02023E000A004C000E001118021A082F
$GNGGA,033350.400,3203.7500,N,11846.9068,E,1,15,0.9,36.8,M,1.2,M,,0003C020243000B004E000E001118061A0538
$GNGGA,033353.201,3203.7482,N,11846.9056,E,1,05,1.8,52.1,M,1.2,M,,0003C0201A0000100070000000018071A0323
138,,202,38,234,,204,32,122,,205,18,255,*61

$GNRMC,033355.000,A,32033C0201A0000100070002000218081A0025
$GNGGA,033357.000,3203.7512,N,11846.9023,E,1,14,1.1,72.2,M,1.2,M,,0003C0201A00001000700030003180819072D
$GNGGA,033359.400,3203.7526,N,11846.9020,E,1,15,0.9,61.6,M,1.2,M,,0003C0201A00001000700030003180819072D
$GNGGA,033401.400,3203.7537,N,11846.9014,E,1,15,0.9,57.5,M,1.2,M,,0003C0201A00001000700070008180219062F
$GNGGA,033403.400,3203.7544,N,11846.9010,E,1,14,0.9,54.1,M,1.2,M,,0003C0201A0000100070009000B170819073A
ALIENTEK-HRTDT
$GNGGA,033405.400,3203.7558,N,11846.9013,E,1,15,0.8,50.8,M,1.2,M,,0003C0201A0000100070009000B1705190939
$GNGGA,033407.400,3203.7570,N,11846.9021,E,1,15,0.9,47.5,M,1.2,M,,0003C0201A000010007000A000C17031A0334
$GNGGA,033409.400,3203.7583,N,11846.9028,E,1,14,1.0,43.5,M,1.2,M,,0003C0201A000010007000A000C17011A0635
$GNGGA,033411.400,3203.7592,N,11846.9027,E,1,14,0.9,39.7,M,1.2,M,,0003C0201A000010007000A000C17031A0839
$GNGGA,033413.400,3203.7608,N,11846.9025,E,1,14,0.9,39.3,M,1.2,M,,0003C0201A000010007000A000C17051A093C
$GNGGA,033415.400,3203.7619,N,11846.9021,E,1,15,1.0,37.9,M,1.2,M,,0003C0201A000010007000A000C17061A093D
$GNGGA,033427.400,3203.7687,N,11846.9007,E,1,15,0.9,38.3,M,1.2,M,,0003C0201A000010007000A000C19031A0134
$GNGGA,033429.400,3203.7698,N,11846.9002,E,1,15,0.8,43.2,M,1.2,M,,0003C0201A000010007000A000C190519073B
$GNGGA,033431.400,3203.7708,N,11846.8999,E,1,15,0.8,47.8,M,1.2,M,,0003C0201A0000100070009000B1903190333
$GNGGA,033433.400,3203.7722,N,11846.8993,E,1,14,1.1,50.6,M,1.2,M,,0003C0201A0000100070009000B1901190331
$GNGGA,033435.400,3203.7728,N,11846.8991,E,1,15,0.9,51.5,M,1.2,M,,0003C0201A0000100070009000B180819083C
$GNGGA,033437.400,3203.7739,N,11846.8988,E,1,15,0.9,52.0,M,1.2,M,,0003C0201A0000100070009000B18081A0439
$GNGGA,033439.400,3203.7755,N,11846.8984,E,1,14,0.9,52.3,M,1.2,M,,0003C0201A0000100070009000B18081A0439
$GNGGA,033441.400,3203.7767,N,11846.8986,E,1,15,0.9,52.1,M,1.2,M,,0003C0201A0000100070009000B1906190639
$GNGGA,033443.400,3203.7779,N,11846.8991,E,1,14,0.9,51.1,M,1.2,M,,0003C0201A0000100070009000B1909190238
$GNGGA,033445.400,3203.7791,N,11846.8993,E,1,15,0.8,50.7,M,1.2,M,,0003C0201A0000100070009000B1A02180938
$GNGGA,033447.600,3203.7809,N,11846.8995,E,1,14,0.9,49.7,M,1.2,M,,0003C0201A0000100070009000B1A02180938
$GNGGA,033449.600,3203.7825,N,11846.8998,E,1,13,1.0,46.4,M,1.2,M,,0003C0201A0000100070009000B1A02180938
$GNGGA,033451.600,3203.7840,N,11846.9001,E,1,13,1.0,43.7,M,1.2,M,,0003C0201A0000100070009000B1909180338
$GNGGA,033453.600,3203.7852,N,11846.8996,E,1,14,0.9,41.9,M,1.2,M,,0003C0201A0000100070009000B1906180335
$GNGGA,033455.600,3203.7867,N,11846.8993,E,1,13,0.9,40.5,M,1.2,M,,0003C0201A0000100070009000B1904180535
$GNGGA,033457.600,3203.7878,N,11846.8986,E,1,13,0.9,43.9,M,1.2,M,,0003C0201A0000100070009000B1900180733
$GNGGA,033459.600,3203.7887,N,11846.8986,E,1,14,1.1,43.6,M,1.2,M,,0003C0201A000010007000A000C180918093F
$GNGGA,033501.600,3203.7901,N,11846.8987,E,1,15,0.9,41.8,M,1.2,M,,0003C0201A000010007000A000C1809190138
$GNGGA,033503.600,3203.7915,N,11846.8988,E,1,15,0.9,40.4,M,1.2,M,,0003C0201A000010007000A000C1902190233
$GNGGA,033505.600,3203.7924,N,11846.8992,E,1,15,0.9,38.4,M,1.2,M,,0003C0201A000010007000A000C1903190133
$GNGGA,033507.600,3203.7940,N,11846.8999,E,1,14,0.9,35.9,M,1.2,M,,0003C0201A000010007000A000C1906190035
$GNGGA,033509.600,3203.7953,N,11846.9001,E,1,14,0.9,35.0,M,1.2,M,,0003C0201A0000100070009000B1907190034
$GNGGA,033511.600,3203.7969,N,11846.9000,E,1,15,0.9,34.7,M,1.2,M,,0003C0201A0000100070009000B1907190034
$GNGGA,033513.600,3203.7984,N,11846.8997,E,1,15,0.9,32.6,M,1.2,M,,0003C0201A00001000700080009190818093A
$GNGGA,033515.600,3203.7997,N,11846.8991,E,1,14,0.9,31.4,M,1.2,M,,0003C0201A000010007000800091A0119002C
$GNGGA,033517.600,3203.8009,N,11846.8989,E,1,15,0.9,31.5,M,1.2,M,,0003C0201A000010007000800091A02180935
$GNGGA,033519.600,3203.8021,N,11846.8986,E,1,15,0.9,32.2,M,1.2,M,,0003C0201A000010007000800091909180537
$GNGGA,033521.600,3203.8032,N,11846.8988,E,1,15,0.9,33.3,M,1.2,M,,0003C0201A000010007000800091906180433
$GNGGA,033523.600,3203.8046,N,11846.8989,E,1,14,0.9,34.9,M,1.2,M,,0003C0201A00001000700080009190218032E
$GNGGA,033525.600,3203.8060,N,11846.8987,E,1,15,0.9,35.4,M,1.2,M,,0003C0201A000010007000800091807180534
$GNGGA,033527.600,3203.8074,N,11846.8985,E,1,14,0.9,34.9,M,1.2,M,,0003C0201A0000100070009000B1805180737
$GNGGA,033529.600,3203.8086,N,11846.8986,E,1,14,0.9,33.6,M,1.2,M,,0003C0201A0000100070009000B1806190032
$GNGGA,033531.600,3203.8102,N,11846.8989,E,1,14,0.9,33.9,M,1.2,M,,0003C0201A000010007000A000C1805190235
$GNGGA,033533.600,3203.8119,N,11846.8992,E,1,14,0.9,34.5,M,1.2,M,,0003C0201A000010007000A000C1805190235
$GNGGA,033539.800,3203.8159,N,11846.8985,E,1,14,0.9,33.7,M,1.2,M,,0003C0201A000010007000C000E1802190438
$GNGGA,033541.800,3203.8172,N,11846.8986,E,1,15,1.0,34.3,M,1.2,M,,0003C0201A000010007000C000E1802190539
$GNGGA,033543.800,3203.8183,N,11846.8982,E,1,14,1.0,32.3,M,1.2,M,,0003C0201A000010007000C000E180419063C
$GNGGA,033551.800,3203.8224,N,11846.9000,E,1,15,0.9,38.3,M,1.2,M,,0003C0201A000010007000A000C1805190538
$GNGGA,033553.800,3203.8235,N,11846.8996,E,1,15,0.8,38.1,M,1.2,M,,0003C0201B20002000F000A000C1809190759
$GNGGA,033555.800,3203.8247,N,11846.8988,E,1,14,1.0,40.2,M,1.2,M,,0003C0201AB0001000C000A000C180919054C
$GNGGA,033559.800,3203.8266,N,11846.8980,E,1,14,0.9,45.8,M,1.2,M,,0003C020253000C00550009000B1900190640
$GNGGA,033603.800,3203.8289,N,11846.8968,E,1,13,0.9,50.3,M,1.2,M,,0003C020296001000720009000B18081A03A9
$GNGGA,033605.800,3203.8298,N,11846.8964,E,1,13,1.1,53.6,M,1.2,M,,0003C020209000700350009000B18091A01D5
ALIENTEK-HRTDT
$GNGGA,033607.800,3203.8312,N,11846.8960,E,1,13,0.9,54.6,M,1.2,M,,0003C0201FE000600300009000B18081909C9
$GNGGA,033609.800,3203.8319,N,11846.8955,E,1,14,0.9,59.7,M,1.2,M,,0003C0201CE0003001B0009000B18061A0077
$GNGGA,033611.800,3203.8329,N,11846.8951,E,1,14,0.9,59.5,M,1.2,M,,0003C0201BE000200140009000B18081A0061
$GNGGA,033613.800,3203.8334,N,11846.8938,E,1,14,0.9,66.1,M,1.2,M,,0003C0201BB000200130009000B19001A0056
$GNGGA,033617.800,3203.8353,N,11846.8924,E,1,14,0.9,72.5,M,1.2,M,,0004A3C0201B20002000F00090019001A034C
$GNGGA,033619.800,3203.8361,N,11846.8922,E,1,14,0.9,75.3,M,1.2,M,,0004A3C0201B20002000F00090019001A034C
$GNGGA,033621.800,3203.8369,N,11846.8920,E,1,15,0.8,76.1,M,1.2,M,,0003C0201A70001000A0009000B1900190940
$GNGGA,033623.800,3203.8379,N,11846.8923,E,1,15,0.9,75.0,M,1.2,M,,0003C0201A70001000A0009000B1900190940
$GNGGA,033625.800,3203.8392,N,11846.8924,E,1,15,0.9,73.5,M,1.2,M,,0003C0201AB0001000C000A000C180919074E
$GNGGA,033629.800,3203.8442,N,11846.8945,E,1,14,0.9,59.6,M,1.2,M,,0003C0201B00002000E000A000C18051A004C
$GNGGA,033633.800,3203.8477,N,11846.8951,E,1,14,1.0,50.0,M,1.2,M,,000543C0201B4000010000A000C18081A0257
$GNGGA,033635.800,3203.8494,N,11846.8948,E,1,15,0.9,45.2,M,1.2,M,,0003C0201B7000200110009000B1901190959
$GNGGA,033637.800,3203.8504,N,11846.8945,E,1,15,0.9,45.7,M,1.2,M,,0003C0201B7000200110009000B1901190959
$GNGGA,033640.000,3203.8516,N,11846.8939,E,1,14,0.9,47.4,M,1.2,M,,0003C0201B7000200110009000B1901190959
$GNGGA,033641.800,3203.8529,N,11846.8938,E,1,14,1.3,45.3,M,1.2,M,,0003C0201AB0001000C0009000B1903190040
$GNGGA,033646.000,3203.8553,N,11846.8939,E,1,15,1.0,44.1,M,1.2,M,,0003C0201B00002000E0009000B1808180954
$GNGGA,033647.800,3203.8563,N,11846.8935,E,1,15,1.0,42.8,M,1.2,M,,0003C0201B20002000F0009000B180619014E
$GNGGA,033649.800,3203.8581,N,11846.8935,E,1,15,1.0,38.8,M,1.2,M,,0003C0201B20002000F0009000B180619014E
$GNGGA,033652.000,3203.8603,N,11846.8929,E,1,14,1.2,37.7,M,1.2,M,,0003C0201C0000300150009000B1806190466
$GNGGA,033653.800,3203.8615,N,11846.8923,E,1,14,0.9,36.9,M,1.2,M,,0003C0201B7000200110009000B1804190658
$GNGGA,033655.800,3203.8627,N,11846.8920,E,1,13,1.2,35.2,M,1.2,M,,0003C0201F20006002B0009000B18021908B1
$GNGGA,033658.000,3203.8646,N,11846.8918,E,1,14,1.2,32.4,M,1.2,M,,0003C0201D20004001D0009000B1800190980
$GNGGA,033659.800,3203.8663,N,11846.8919,E,1,14,1.2,30.1,M,1.2,M,,0003C0201D20004001D0009000B17081A0180
$GNGGA,033701.800,3203.8678,N,11846.8921,E,1,13,1.2,28.0,M,1.2,M,,0003C0201C0000300150009000B17081A0367
$GNGGA,033704.000,3203.8707,N,11846.8920,E,1,13,1.2,26.7,M,1.2,M,,0003C0201C7000300180009000B18001A046B
$GNGGA,033705.800,3203.8726,N,11846.8918,E,1,13,1.0,28.3,M,1.2,M,,0003C0201DE000400220009000B18001A048D
$GNGGA,033707.800,3203.8745,N,11846.8916,E,1,13,1.0,28.5,M,1.2,M,,0003C020203000700320009000B17091A05CF
$GNGGA,033710.000,3203.8767,N,11846.8908,E,1,14,0.9,30.7,M,1.2,M,,0003C02028F000F006F0009000B18001A089B
$GNGGA,033711.800,3203.8777,N,11846.8903,E,1,13,1.0,30.7,M,1.2,M,,0003C02028F000F006F0009000B18001A089B
$GNGGA,033713.800,3203.8788,N,11846.8906,E,1,13,1.0,26.7,M,1.2,M,,0003C02023A000A004A0009000B17061A0922
$GNGGA,033716.000,3203.8806,N,11846.8904,E,1,13,0.9,24.5,M,1.2,M,,0003C020237000A00490008000917061B0013
$GNGGA,033718.000,3203.8820,N,11846.8902,E,1,13,1.0,23.8,M,1.2,M,,0003C020337001A00B80008000917051B099B
$GNGGA,033720.000,3203.8832,N,11846.8901,E,1,14,0.9,26.1,M,1.2,M,,0003C0202CF0013008B0008000917051B09FE
$GNGGA,033722.000,3203.8843,N,11846.8903,E,1,14,0.9,27.4,M,1.2,M,,0003C020293001000710008000917041B09A4
$GNGGA,033726.000,3203.8865,N,11846.8906,E,1,14,1.0,30.0,M,1.2,M,,0003C02024E000B00530008000918021B0436
,201,43,138,39*69

$BDGSV,3,3,12,219,42,053,,202,38,234,24,204,32,1223C02024E000B00530008000918021B0436
$GNGGA,033730.000,3203.8888,N,11846.8902,E,1,14,1.1,34.6,M,1.2,M,,0003C020235000A00480007000818041A0713
$GNGGA,033732.000,3203.8900,N,11846.8896,E,1,13,1.0,38.8,M,1.2,M,,0003C020235000A00480007000818021A040E
,201,43,138,33*69

$BDGSV,3,3,12,219,42,053,,202,38,234,25,204,32,1223C020255000C00560007000818011A043D
$GNGGA,033736.000,3203.8914,N,11846.8888,E,1,14,1.3,45.0,M,1.2,M,,0003C020243000B004E0007000818041A0425
$GNGGA,033738.000,3203.8926,N,11846.8886,E,1,14,1.0,46.0,M,1.2,M,,0003C020258000C00570008000918071A0348
$GNGGA,033743.000,3203.8933,N,11846.8881,E,0,00,0.0,50.7,M,0.0,M,,00000000000940D00201D020008D80D0020D8
202,38,234,,204,32,122,,221,16,279,*63

$GNRMC,033744.800,A,3203.89473C0201A00001000700020002180919092E
$GNGGA,033747.000,3203.8951,N,11846.8861,E,1,14,1.0,82.3,M,1.2,M,,0003C0201A00001000700030003180819082E
$GNGGA,033749.200,3203.8946,N,11846.8844,E,1,13,1.2,91.4,M,1.2,M,,0003C0201A000010007000500061807190832
$GNGGA,033751.200,3203.8953,N,11846.8834,E,1,13,1.0,93.0,M,1.2,M,,0003C0201A000010007000700081806190835
$GNGGA,033753.200,3203.8957,N,11846.8828,E,1,14,1.0,98.7,M,1.2,M,,0003C0201A0000100070009000B1805190839
$GNGGA,033755.200,3203.8970,N,11846.8821,E,1,15,0.8,102.9,M,1.2,M,,003C0201A000010007000800091804190936
$GNGGA,033757.200,3203.8989,N,11846.8857,E,1,14,1.0,89.9,M,1.2,M,,0003C0201A0000100070009000B18021A0231
$GNGGA,033759.200,3203.8993,N,11846.8860,E,1,15,0.9,79.8,M,1.2,M,,0003C0201A0000100070009000B18031A0333
$GNGGA,033801.200,3203.8994,N,11846.8854,E,1,14,0.9,85.3,M,1.2,M,,0003C0201A0000100070009000B18021A0534
$GNGGA,033803.200,3203.8998,N,11846.8845,E,1,13,0.9,91.1,M,1.2,M,,0003C0201A0000100070008000918051A0736
$GNGGA,033805.200,3203.9001,N,11846.8822,E,1,13,1.0,96.3,M,1.2,M,,0003C0201A0000100070008000918071A0637
ALIENTEK-HRTDT
$GNGGA,033807.200,3203.9000,N,11846.8820,E,1,14,0.9,99.6,M,1.2,M,,0003C0201A0000100070008000918091A0336
$GNGGA,033809.200,3203.9002,N,11846.8819,E,1,14,0.9,102.2,M,1.2,M,,003C0201A0000100070008000918081A0133
$GNGGA,033811.200,3203.9008,N,11846.8816,E,1,13,0.9,102.7,M,1.2,M,,003C0201A0000100070008000918071A0031
$GNGGA,033813.200,3203.9012,N,11846.8813,E,1,14,0.9,104.5,M,1.2,M,,003C0201A0000100070008000918071A0132
$GNGGA,033815.200,3203.9015,N,11846.8807,E,1,13,1.0,106.2,M,1.2,M,,003C0201A0000100070008000918051A0433
$GNGGA,033817.200,3203.9022,N,11846.8802,E,1,14,0.9,105.1,M,1.2,M,,003C0201A0000100070008000918051A0635
$GNGGA,033819.200,3203.9030,N,11846.8795,E,1,15,0.9,105.9,M,1.2,M,,003C0201A0000100070008000918041A0735
$GNGGA,033821.200,3203.9033,N,11846.8790,E,1,14,0.9,105.2,M,1.2,M,,003C0201A0000100070008000918021B0431
$GNGGA,033823.200,3203.9042,N,11846.8774,E,1,12,0.9,106.2,M,1.2,M,,003C0201A0000100070008000918021C002E
$GNGGA,033825.200,3203.9062,N,11846.8765,E,1,14,0.9,103.6,M,1.2,M,,003C0201A0000100070008000918011B0834
$GNGGA,033827.200,3203.9075,N,11846.8764,E,1,14,0.9,98.4,M,1.2,M,,0003C0201A0000100070008000917091B0538
$GNGGA,033829.200,3203.9094,N,11846.8762,E,1,14,0.9,88.0,M,1.2,M,,0003C0201A0000100070008000918021B0431
$GNGGA,033831.200,3203.9127,N,11846.8791,E,1,15,0.9,72.1,M,1.2,M,,0003C0201A0000100070008000918021B0431
$GNGGA,033833.200,3203.9141,N,11846.8793,E,1,14,0.9,61.5,M,1.2,M,,0003C0201A0000100070009000B18011B002F
$GNGGA,033835.200,3203.9169,N,11846.8795,E,1,15,0.9,55.5,M,1.2,M,,0003C0201A0000100070009000B18011B002F
$GNGGA,033837.200,3203.9192,N,11846.8790,E,1,14,0.9,48.4,M,1.2,M,,0003C0201A000010007000A000C17091B073F
$GNGGA,033839.400,3203.9212,N,11846.8767,E,1,14,0.9,54.2,M,1.2,M,,0003C0201A000010007000A000C17091B063E
$GNGGA,033849.400,3203.9257,N,11846.8689,E,1,14,0.9,86.8,M,1.2,M,,0003C0201A000010007000A000C17021B093A
$GNGGA,033851.400,3203.9267,N,11846.8680,E,1,14,0.9,90.2,M,1.2,M,,0003C0201A000010007000A000C17021C0133
$GNGGA,033853.400,3203.9284,N,11846.8670,E,1,14,1.1,94.5,M,1.2,M,,0003C0201A0000100070009000B17021C0131
$GNGGA,033855.400,3203.9294,N,11846.8665,E,1,14,0.9,94.7,M,1.2,M,,0003C0201A0000100070009000B17031C0435
$GNGGA,033857.400,3203.9310,N,11846.8658,E,1,13,1.2,94.4,M,1.2,M,,0003C0201A0000100070009000B17031C0536
$GNGGA,033859.400,3203.9321,N,11846.8653,E,1,13,0.9,95.6,M,1.2,M,,0003C0201A0000100070009000B17031D0032
$GNGGA,033901.400,3203.9334,N,11846.8644,E,1,13,1.0,97.4,M,1.2,M,,0003C0201A0000100070009000B17021D0839
$GNGGA,033903.400,3203.9349,N,11846.8643,E,1,14,0.9,93.7,M,1.2,M,,0003C0201A0000100070009000B17011D0636
$GNGGA,033905.400,3203.9369,N,11846.8632,E,1,14,1.0,71.9,M,1.2,M,,0003C0201A0000100070009000B17011D0333
$GNGGA,033907.400,3203.9393,N,11846.8639,E,1,14,1.0,62.2,M,1.2,M,,0003C0201A000010007000A000C17011D0032
$GNGGA,033909.400,3203.9433,N,11846.8667,E,1,14,1.2,57.2,M,1.2,M,,0003C0201A000010007000A000C17021D0134
$GNGGA,033911.400,3203.9446,N,11846.8667,E,1,15,1.0,57.0,M,1.2,M,,0003C0201A000010007000A000C17011C093A
$GNGGA,033913.400,3203.9462,N,11846.8671,E,1,14,1.2,56.5,M,1.2,M,,0003C0201A000010007000A000C17011C0839
$GNGGA,033915.400,3203.9485,N,11846.8684,E,1,14,1.2,52.1,M,1.2,M,,0003C0201A000010007000A000C17021C0638
$GNGGA,033917.400,3203.9508,N,11846.8685,E,1,14,0.9,52.8,M,1.2,M,,0003C0201A000010007000A000C17001C0535
$GNGGA,033919.400,3203.9522,N,11846.8686,E,1,13,0.9,54.2,M,1.2,M,,0003C0201A000010007000A000C17001C0535
$GNGGA,033921.400,3203.9536,N,11846.8683,E,1,13,0.9,57.7,M,1.2,M,,0003C0201A000010007000A000C17001C0535
$GNGGA,033923.400,3203.9560,N,11846.8682,E,1,14,0.9,57.4,M,1.2,M,,0003C0201A0000100070009000B16021C0534
$GNGGA,033925.400,3203.9576,N,11846.8690,E,1,15,1.0,55.8,M,1.2,M,,0003C0201A0000100070009000B16031C0737
$GNGGA,033927.400,3203.9595,N,11846.8703,E,1,15,1.0,48.2,M,1.2,M,,0003C0201A0000100070009000B16031C0737
$GNGGA,033929.600,3203.9599,N,11846.8697,E,1,15,0.8,47.4,M,1.2,M,,0003C0201A0000100070009000B16021D0030
$GNGGA,033931.600,3203.9608,N,11846.8694,E,1,14,0.9,50.3,M,1.2,M,,0003C0201A0000100070009000B16041D0234
$GNGGA,033933.600,3203.9620,N,11846.8687,E,1,14,0.9,50.1,M,1.2,M,,0003C0201A0000100070009000B16051D0235
$GNGGA,033935.600,3203.9632,N,11846.8681,E,1,13,1.1,49.3,M,1.2,M,,0003C0201A0000100070009000B16041D0234
$GNGGA,033937.600,3203.9638,N,11846.8675,E,1,14,0.9,51.0,M,1.2,M,,0003C0201A0000100070009000B16051D0235
$GNGGA,033939.600,3203.9649,N,11846.8670,E,1,14,0.9,51.9,M,1.2,M,,0003C0201A0000100070009000B16061D0539
$GNGGA,033941.600,3203.9668,N,11846.8665,E,1,15,0.8,51.5,M,1.2,M,,0003C0201A0000100070009000B16061D063A
$GNGGA,033943.600,3203.9678,N,11846.8651,E,1,14,0.9,54.0,M,1.2,M,,0003C0201FE000600300009000B16061E03C4
$GNGGA,033945.600,3203.9694,N,11846.8636,E,1,14,1.1,54.9,M,1.2,M,,0003C0201AB0001000C0009000B16061D094D
$GNGGA,033947.600,3203.9705,N,11846.8633,E,1,14,0.9,59.6,M,1.2,M,,0003C0201EE000500290009000B16091E01AD
$GNGGA,033949.600,3203.9713,N,11846.8629,E,1,14,0.9,62.7,M,1.2,M,,0003C0201B00002000E0009000B16091D0857
$GNGGA,033951.600,3203.9730,N,11846.8623,E,1,14,0.9,63.3,M,1.2,M,,0003C0201B20002000F0008000916091D0453
$GNGGA,033953.600,3203.9744,N,11846.8627,E,1,13,0.9,59.7,M,1.2,M,,0003C0201B4000200100008000916091D0254
$GNGGA,033955.600,3203.9752,N,11846.8622,E,1,14,1.0,59.9,M,1.2,M,,0003C0201B7000200110008000916081D0257
$GNGGA,033957.600,3203.9760,N,11846.8620,E,1,15,0.8,60.3,M,1.2,M,,0003C0201A70001000A0008000916091D003E
$GNGGA,033959.600,3203.9767,N,11846.8619,E,1,14,0.9,60.2,M,1.2,M,,0003C0201A90001000B0008000917001D013A
$GNGGA,034001.600,3203.9785,N,11846.8618,E,1,15,0.8,61.0,M,1.2,M,,0003C0201AB0001000C0008000917031C0846
$GNGGA,034005.600,3203.9812,N,11846.8612,E,1,15,0.9,60.5,M,1.2,M,,000493C0201B00002000E0007000817061C03
ALIENTEK-HRTDT
$GNGGA,034009.600,3203.9837,N,11846.8608,E,1,15,0.9,53.6,M,1.2,M,,00001480201B40002100007000817031C024C
$GNGGA,034011.600,3203.9844,N,11846.8605,E,1,14,0.9,53.0,M,1.2,M,,00001480201B40002100007000817031C024C
$GNGGA,034013.600,3203.9858,N,11846.8605,E,1,14,0.9,48.1,M,1.2,M,,00001480201B40002100007000817031C024C
$GNGGA,034015.600,3203.9869,N,11846.8607,E,1,15,0.8,43.5,M,1.2,M,,0003C0201E7000500260009000B17011C029B
$GNGGA,034017.600,3203.9885,N,11846.8599,E,1,13,0.9,46.6,M,1.2,M,,0003C0201C200030016000A000C17011C0367
$GNGGA,034019.600,3203.9902,N,11846.8598,E,1,12,1.0,47.2,M,1.2,M,,0003C0201C200030016000A000C17011C0367
$GNGGA,034021.600,3203.9919,N,11846.8596,E,1,13,1.0,48.0,M,1.2,M,,0003C0201B400020010000A000C17011C0352
$GNGGA,034027.600,3203.9962,N,11846.8566,E,1,13,1.0,46.9,M,1.2,M,,0003C0201B400020010000A000C17001C0452
$GNGGA,034031.600,3203.9990,N,11846.8523,E,1,12,1.3,44.7,M,1.2,M,,00004470201B20002000F000A000C091C0558
$GNGGA,034035.800,3204.0017,N,11846.8503,E,1,12,1.1,42.5,M,1.2,M,,0003C0201B00002000E000A000C16081C0655
$GNGGA,034037.800,3204.0031,N,11846.8495,E,1,12,1.1,41.7,M,1.2,M,,0003C0201B20002000F000A000C16081C0658
$GNGGA,034039.800,3204.0035,N,11846.8480,E,1,12,1.1,43.5,M,1.2,M,,0003C0201FE00060030000A000C16081C07CA
$GNGGA,034041.800,3204.0041,N,11846.8472,E,1,12,1.1,39.8,M,1.2,M,,0003C0201E900050027000A000C16061C09AB
$GNGGA,034043.800,3204.0046,N,11846.8466,E,1,12,1.1,39.0,M,1.2,M,,0003C0201B700020011000A000C16061C075E
$GNGGA,034045.800,3204.0047,N,11846.8466,E,1,13,1.0,38.7,M,1.2,M,,0003C0201AB0001000C000A000C16061C074C
$GNGGA,034047.800,3204.0046,N,11846.8474,E,1,13,1.0,39.9,M,1.2,M,,0003C0201DE000400220009000B16061C0796
$GNGGA,034049.800,3204.0040,N,11846.8479,E,1,12,1.4,41.9,M,1.2,M,,0003C0202CB001300890009000B16051C08FA
$GNGGA,034051.800,3204.0041,N,11846.8486,E,1,13,1.0,45.0,M,1.2,M,,0003C020281000F00690009000B16051D0085
$GNGGA,034055.800,3204.0050,N,11846.8510,E,1,13,1.1,50.4,M,1.2,M,,0003C020273000E00630009000B16041D006F
$GNGGA,034057.800,3204.0048,N,11846.8515,E,1,12,1.0,52.0,M,1.2,M,,0003C020330001900B50009000B16041D018B
$GNGGA,034059.800,3204.0053,N,11846.8521,E,1,12,1.4,52.6,M,1.2,M,,0003C0203B8002200F00009000B16031D0257
$GNGGA,034101.800,3204.0062,N,11846.8531,E,1,12,1.0,53.5,M,1.2,M,,0003C020377001E00D40009000B16031D03F7
$GNGGA,034103.800,3204.0067,N,11846.8540,E,1,12,1.0,54.2,M,1.2,M,,0003C020359001C00C70009000B16031D04CB
$GNGGA,034105.800,3204.0070,N,11846.8548,E,1,12,1.0,52.2,M,1.2,M,,0003C0202DB001400900009000B16031D050E
$GNGGA,034107.800,3204.0080,N,11846.8567,E,1,13,1.1,49.0,M,1.2,M,,0003C020286000F006B0008000916031D068D
$GNGGA,034109.800,3204.0091,N,11846.8602,E,1,12,1.0,49.6,M,1.2,M,,0003C0202A6001100790008000916031D07BE
$GNGGA,034111.800,3204.0102,N,11846.8622,E,1,12,1.0,52.6,M,1.2,M,,0003C02027F000E00680008000916031D0783
$GNGGA,034113.800,3204.0108,N,11846.8639,E,1,13,0.9,53.0,M,1.2,M,,0003C020248000B00500008000916031D0731
$GNGGA,034116.000,3204.0117,N,11846.8669,E,1,12,1.0,50.0,M,1.2,M,,0003C020223000900400007000816031D08F9
219,41,055,,202,38,234,27,204,32,122,32,212,00,000,24*6F

$GNRMC,03413C020213000800390007000816031D08E1
$GNGGA,034120.000,3204.0137,N,11846.8714,E,1,13,0.9,51.8,M,1.2,M,,0003C0201F90006002E0007000816031D08B9
$GNGGA,034122.000,3204.0155,N,11846.8744,E,1,12,1.0,49.9,M,1.2,M,,0003C0201E2000500240007000816031D0796
,41,055,,202,38,234,27,204,32,122,29,212,00,000,23*62

$GNRMC,034123.3C0201DB000400210007000816031D068A
$GNGGA,034126.000,3204.0183,N,11846.8815,E,1,13,0.9,43.6,M,1.2,M,,0003C0201C2000300160007000816031D0665
$GNGGA,034128.000,3204.0193,N,11846.8838,E,1,11,1.1,42.6,M,1.2,M,,0003C0201A90001000B0007000816031D053E
$GNGGA,034134.000,3204.0201,N,11846.8885,E,1,13,0.9,46.7,M,1.2,M,,0003C0201B00002000E0007000816031D0448
19,41,055,,202,38,234,27,204,32,122,35,212,00,000,22*6E

$GNRMC,034133C0201B20002000F0007000816031D034A
$GNGGA,034138.000,3204.0197,N,11846.8950,E,1,13,0.9,47.0,M,1.2,M,,0003C0201D70004001F0007000816031D0684
$GNGGA,034140.000,3204.0200,N,11846.8973,E,1,13,1.1,44.2,M,1.2,M,,0003C0201B7000200110007000816041D0756
3,12,219,41,055,,202,38,234,29,204,32,122,33,212,00,000,19*6E

$GNRMC3C0201C9000300190007000816031D066F
$GNGGA,034144.000,3204.0202,N,11846.9011,E,1,13,1.2,48.2,M,1.2,M,,0003C0201A90001000B0007000816031D063F
$GNGGA,034146.000,3204.0202,N,11846.9023,E,1,13,0.9,48.4,M,1.2,M,,0003C0201AB0001000C0007000816031D0440
$GNGGA,034150.000,3204.0210,N,11846.9062,E,1,13,1.1,49.3,M,1.2,M,,0003C0201B00002000E0008000916031D0046
$GNGGA,034152.000,3204.0212,N,11846.9077,E,1,13,0.9,51.6,M,1.2,M,,0003C0201B20002000F0008000916031C0951
2,219,41,055,,202,38,234,28,204,32,122,31,212,00,000,20*67

$GNRMC,033C0201B4000200100008000916031C0954
$GNGGA,034156.000,3204.0219,N,11846.9102,E,1,13,0.9,59.1,M,1.2,M,,0003C0201B7000200110008000916031C0857
$GNGGA,034158.000,3204.0217,N,11846.9122,E,1,13,0.9,58.0,M,1.2,M,,0003C0201B7000200110008000916031C0857
2,219,41,055,,202,38,234,29,204,32,122,28,212,00,000,22*6C

$GNRMC,033C0201F50006002C0008000916031D00AD
$GNGGA,034202.000,3204.0216,N,11846.9140,E,1,13,1.1,61.1,M,1.2,M,,0003C0201E0000500230008000916021D008D
$GNGGA,034204.200,3204.0211,N,11846.9156,E,1,14,0.9,62.9,M,1.2,M,,0003C0201DB000400210008000916021D0085
$GNGGA,034206.200,3204.0210,N,11846.9158,E,1,13,0.9,64.9,M,1.2,M,,0003C0202FB0016009E0008000916021D063B
ALIENTEK-HRTDT
$GNGGA,034212.200,3204.0208,N,11846.9158,E,0,00,0.0,69.6,M,0.0,M,,0003C0201A0000100070000000016011D0621
$GNGGA,034214.200,3204.0310,N,11846.9243,E,1,06,1.7,-28.9,M,1.2,M,,003C0201A0000100070002000216001D0624
$GNGGA,034216.200,3204.0625,N,11846.9175,E,1,10,1.6,105.4,M,1.2,M,,003C0201A0000100070002000216011D0524
$GNGGA,034218.200,3204.0466,N,11846.9174,E,1,11,1.2,90.7,M,1.2,M,,0003C0201A0000100070003000316011D0526
$GNGGA,034220.200,3204.0365,N,11846.9207,E,1,12,1.1,66.6,M,1.2,M,,0003C0201A0000100070004000416011D082B
$GNGGA,034222.200,3204.0352,N,11846.9217,E,1,09,1.4,46.3,M,1.2,M,,0003C0201A0000100070004000416011D082B
$GNGGA,034224.200,3204.0311,N,11846.9242,E,1,09,1.4,41.8,M,1.2,M,,0003C0201A0000100070004000416011D092C
$GNGGA,034226.200,3204.0291,N,11846.9248,E,1,09,1.4,36.7,M,1.2,M,,0003C0201A0000100070005000616011D072D
$GNGGA,034228.400,3204.0275,N,11846.9255,E,1,10,1.3,34.7,M,1.2,M,,0003C0201A0000100070005000616011D072D
$GNGGA,034230.400,3204.0267,N,11846.9285,E,1,10,1.3,33.2,M,1.2,M,,0003C0201A0000100070005000616001D0227
$GNGGA,034232.400,3204.0273,N,11846.9296,E,1,10,1.3,32.9,M,1.2,M,,0003C0201A0000100070005000616021D0229
$GNGGA,034234.400,3204.0276,N,11846.9307,E,1,09,1.7,34.5,M,1.2,M,,0003C0201A0000100070005000616021D0229
$GNGGA,034236.400,3204.0280,N,11846.9322,E,1,09,1.7,34.3,M,1.2,M,,0003C0201A0000100070005000616031D052D
$GNGGA,034238.400,3204.0289,N,11846.9328,E,1,09,1.7,35.1,M,1.2,M,,0003C0201A0000100070005000616031D052D
$GNGGA,034240.400,3204.0297,N,11846.9342,E,1,09,1.7,34.6,M,1.2,M,,0003C0201A0000100070005000616041D032C
$GNGGA,034242.400,3204.0301,N,11846.9354,E,1,08,1.8,34.5,M,1.2,M,,0003C0201A0000100070005000616041D0029
$GNGGA,034244.400,3204.0308,N,11846.9364,E,1,09,1.7,35.9,M,1.2,M,,0003C0201A0000100070005000616041C0931
$GNGGA,034246.400,3204.0314,N,11846.9379,E,1,09,1.4,35.0,M,1.2,M,,0003C0201A0000100070006000716031C0831
$GNGGA,034248.400,3204.0317,N,11846.9401,E,1,08,1.8,33.0,M,1.2,M,,0003C0201A0000100070006000716021C072F
$GNGGA,034250.400,3204.0327,N,11846.9416,E,1,08,1.8,31.0,M,1.2,M,,0003C0201A0000100070006000716011C062D
$GNGGA,034252.400,3204.0333,N,11846.9429,E,1,10,1.3,29.7,M,1.2,M,,0003C0201A0000100070006000716001C062C
$GNGGA,034254.400,3204.0345,N,11846.9443,E,1,08,1.8,28.0,M,1.2,M,,0003C0201A0000100070006000716001C072D
$GNGGA,034256.400,3204.0352,N,11846.9456,E,1,08,1.8,27.5,M,1.2,M,,0003C0201A0000100070007000815091C0838
$GNGGA,034258.400,3204.0355,N,11846.9476,E,1,09,1.4,27.9,M,1.2,M,,0003C0201A0000100070007000815091C0939
$GNGGA,034300.400,3204.0364,N,11846.9489,E,1,09,1.4,26.9,M,1.2,M,,0003C0201A0000100070007000815081D0131
$GNGGA,034302.400,3204.0375,N,11846.9496,E,1,14,0.9,27.1,M,1.2,M,,0003C0201A0000100070007000815081D0131
$GNGGA,034304.400,3204.0385,N,11846.9507,E,1,14,0.9,26.7,M,1.2,M,,0003C0201A0000100070007000815081D0131
$GNGGA,034306.400,3204.0395,N,11846.9520,E,1,14,0.9,27.7,M,1.2,M,,0003C0201A0000100070008000915091D0437
$GNGGA,034310.400,3204.0413,N,11846.9545,E,1,12,1.0,27.1,M,1.2,M,,000363C0201A0000100070008000915081D37
$GNGGA,034312.400,3204.0420,N,11846.9559,E,1,14,0.9,27.0,M,1.2,M,,000363C0201A0000100070008000915081D37
$GNGGA,034314.400,3204.0435,N,11846.9569,E,1,14,0.9,28.0,M,1.2,M,,000363C0201A0000100070008000915081D37
$GNGGA,034316.400,3204.0444,N,11846.9584,E,1,13,0.9,30.0,M,1.2,M,,000363C0201A0000100070008000915081D37
$GNGGA,034318.400,3204.0452,N,11846.9595,E,1,13,0.9,31.3,M,1.2,M,,000363C0201A0000100070008000915081D37
$GNGGA,034320.400,3204.0464,N,11846.9609,E,1,13,0.9,30.7,M,1.2,M,,0003C0201A0000100070007000815081D0535
$GNGGA,034322.400,3204.0477,N,11846.9616,E,1,14,0.9,31.7,M,1.2,M,,0003C0201A0000100070007000815081D0535
$GNGGA,034324.400,3204.0486,N,11846.9633,E,1,13,0.9,31.0,M,1.2,M,,0003C0201A0000100070007000815091D0536
$GNGGA,034326.600,3204.0494,N,11846.9661,E,2,14,0.9,29.4,M,1.2,M,,0003C0201A0000100070007000816001D062F
$GNGGA,034328.400,3204.0504,N,11846.9670,E,2,14,0.9,31.7,M,1.2,M,,0003C0201A0000100070007000816021D0631
$GNGGA,034330.400,3204.0518,N,11846.9679,E,2,12,1.0,31.8,M,1.2,M,,0003C0201A0000100070007000816021D0631
$GNGGA,034332.600,3204.0526,N,11846.9691,E,2,13,0.9,32.5,M,1.2,M,,0003C0201A0000100070007000816041D0936
$GNGGA,034334.400,3204.0533,N,11846.9702,E,2,13,0.9,34.3,M,1.2,M,,0003C0201A0000100070007000816041D0936
$GNGGA,034336.600,3204.0544,N,11846.9716,E,2,12,1.0,34.2,M,1.2,M,,0003C0201A0000100070007000816061D0837
$GNGGA,034338.600,3204.0547,N,11846.9726,E,2,12,1.0,34.8,M,1.2,M,,0003C0201A0000100070007000816061D0534
$GNGGA,034340.400,3204.0554,N,11846.9736,E,2,13,0.9,34.8,M,1.2,M,,0003C0201A0000100070007000816061D0534
$GNGGA,034342.600,3204.0563,N,11846.9755,E,2,13,0.9,31.3,M,1.2,M,,0003C0201A0000100070007000816061D0130
$GNGGA,034344.600,3204.0565,N,11846.9764,E,2,13,0.9,30.0,M,1.2,M,,0003C0201A0000100070007000816071D0131
$GNGGA,034346.400,3204.0565,N,11846.9779,E,2,13,0.9,28.6,M,1.2,M,,0003C0201A0000100070007000816061D0130
$GNGGA,034348.400,3204.0567,N,11846.9798,E,2,13,0.9,29.5,M,1.2,M,,0003C0201A0000100070007000816061D0130
$GNGGA,034350.600,3204.0574,N,11846.9813,E,2,14,0.9,29.6,M,1.2,M,,0003C0201A0000100070007000816051D012F
$GNGGA,034352.400,3204.0579,N,11846.9822,E,2,14,0.9,29.4,M,1.2,M,,0003C0201A0000100070007000816051D012F
$GNGGA,034354.400,3204.0582,N,11846.9831,E,2,13,0.9,29.3,M,1.2,M,,0003C0201A0000100070007000816051D012F
$GNGGA,034356.600,3204.0587,N,11846.9842,E,2,14,0.9,28.7,M,1.2,M,,0003C0201A0000100070007000816031D0430
$GNGGA,034358.400,3204.0590,N,11846.9853,E,2,13,0.9,28.4,M,1.2,M,,0003C0201A0000100070007000816011D042E
$GNGGA,034400.400,3204.0593,N,11846.9864,E,2,12,1.0,28.0,M,1.2,M,,0003C0201A0000100070007000816001D042D
$GNGGA,034402.600,3204.0598,N,11846.9872,E,2,13,0.9,28.2,M,1.2,M,,0003C0201A0000100070007000816001D052E
$GNGGA,034406.400,3204.0604,N,11846.9891,E,2,13,0.9,29.9,M,1.2,M,,000363C0201A00001000700070015081D0535
$GNGGA,034408.600,3204.0609,N,11846.9903,E,2,12,1.0,31.5,M,1.2,M,,0003C0201A0000100070007000815081D0434
ALIENTEK-HRTDT
$GNGGA,034410.600,3204.0616,N,11846.9919,E,2,12,1.0,30.4,M,1.2,M,,0003C0201A0000100070007000815081D0434
$GNGGA,034412.800,3204.0620,N,11846.9941,E,1,12,1.0,28.1,M,1.2,M,,0003C0201B4000200100007000815081D0452
9,41,056,,202,38,234,25,204,32,122,,212,00,000,30*6A

$GNRMC,034414.63C0201C9000300190007000815081D0572
$GNGGA,034416.600,3204.0628,N,11846.9975,E,1,12,1.0,25.7,M,1.2,M,,0003C0201C2000300160007000815071D0567
$GNGGA,034418.800,3204.0627,N,11846.9994,E,1,12,1.0,21.3,M,1.2,M,,0003C0201D20004001D0007000815071D0680
,41,056,,202,38,234,25,204,32,122,,212,00,000,37*6D

$GNRMC,034420.603C0201CE0003001B0007000815061D087A
$GNGGA,034422.600,3204.0632,N,11847.0019,E,1,12,1.1,18.7,M,1.2,M,,0003C0201B4000200100007000815071E014F
$GNGGA,034424.600,3204.0626,N,11847.0039,E,1,12,1.1,18.8,M,1.2,M,,0003C0201B7000200110007000815061E0253
41,056,,202,38,234,25,204,32,122,,212,00,000,28*63

$GNRMC,034426.6003C0201A70001000A0007000815061E013A
$GNGGA,034428.800,3204.0611,N,11847.0056,E,1,13,1.0,27.0,M,1.2,M,,0003C0201A90001000B0007000815051E023D
$GNGGA,034430.600,3204.0603,N,11847.0063,E,1,13,0.9,30.3,M,1.2,M,,0003C0201AB0001000C0007000815051E013F
19,41,056,,202,38,234,24,204,32,122,31,212,00,000,30*69

$GNRMC,034433C0201B20002000F0007000815061E024C
$GNGGA,034434.600,3204.0588,N,11847.0080,E,1,13,0.9,31.8,M,1.2,M,,0003C0201B00002000E0007000815041E0348
$GNGGA,034436.600,3204.0580,N,11847.0095,E,1,13,0.9,32.7,M,1.2,M,,0003C0201B20002000F0007000815041E024A
2,219,41,056,,202,38,234,26,204,32,122,26,212,00,000,30*6D

$GNRMC,033C0201B4000200100007000815031E014B
$GNGGA,034440.600,3204.0569,N,11847.0124,E,1,12,1.0,32.3,M,1.2,M,,0003C0201BB000200130007000815031E0256
$GNGGA,034442.600,3204.0562,N,11847.0146,E,1,12,1.0,31.9,M,1.2,M,,0003C0201B20002000F0007000815041E024A
219,41,056,,202,38,234,,204,32,122,27,212,00,000,28*61

$GNRMC,0344443C0201C0000300150007000815041E015E
$GNGGA,034446.600,3204.0556,N,11847.0178,E,1,12,1.0,29.9,M,1.2,M,,0003C0201DB000400210007000815041E0287
$GNGGA,034448.800,3204.0557,N,11847.0187,E,1,12,1.0,30.2,M,1.2,M,,0003C0201DB000400210007000815041E0287
,219,41,056,,202,38,234,,204,32,122,26,212,00,000,31*68

$GNRMC,034453C0201F50006002C0007000815041E00AC
$GNGGA,034452.800,3204.0562,N,11847.0217,E,1,12,1.0,27.3,M,1.2,M,,0003C0201E7000500260007000815041E0097
$GNGGA,034454.600,3204.0564,N,11847.0226,E,1,12,1.1,24.2,M,1.2,M,,0003C0201F90006002E0007000815041D09BA
9,41,056,,202,38,234,,204,32,122,26,212,00,000,29*61

$GNRMC,034456.63C02020E000700370007000815051D09DB
$GNGGA,034458.600,3204.0561,N,11847.0249,E,1,11,1.2,23.0,M,1.2,M,,0003C02020E000700370007000815061D09DC
$GNGGA,034500.800,3204.0558,N,11847.0258,E,1,11,1.0,23.9,M,1.2,M,,0003C020213000800390007000815061D08E3
9,41,056,,202,38,234,,204,32,122,26,212,00,000,27*6F

$GNRMC,034502.63C020213000800390007000815061D08E3
$GNGGA,034505.000,3204.0551,N,11847.0268,E,2,11,1.0,21.9,M,1.2,M,,0003C02021E0008003E0007000815061D07F2
$GNGGA,034507.000,3204.0547,N,11847.0283,E,1,12,1.1,21.7,M,1.2,M,,0003C02022A000900430007000815071D0705
$GNGGA,034509.000,3204.0545,N,11847.0286,E,1,12,1.1,20.3,M,1.2,M,,0003C0201EE000500290007000815071D04A7
$GNGGA,034511.000,3204.0541,N,11847.0294,E,1,11,1.1,20.5,M,1.2,M,,0003C0201C2000300160007000815071D0264
$GNGGA,034514.200,3204.0541,N,11847.0294,E,0,00,0.0,21.7,M,0.0,M,,0003C0201A0000100070000000015061C0927
$GNGGA,034516.200,3204.0537,N,11847.0434,E,1,10,1.1,32.2,M,1.2,M,,0003C0201A0000100070002000215071D0024
$GNGGA,034518.200,3204.0536,N,11847.0443,E,1,10,1.4,31.5,M,1.2,M,,0003C0201A0000100070003000315061D0126
$GNGGA,034520.200,3204.0533,N,11847.0457,E,1,10,1.1,26.8,M,1.2,M,,0003C0201A0000100070005000615061D022C
$GNGGA,034522.200,3204.0529,N,11847.0468,E,1,10,1.1,23.4,M,1.2,M,,0003C0201A0000100070007000815051D002D
$GNGGA,034524.200,3204.0527,N,11847.0478,E,1,10,1.1,23.0,M,1.2,M,,0003C0201A0000100070009000B15051C093A
$GNGGA,034526.200,3204.0523,N,11847.0492,E,1,12,1.0,22.3,M,1.2,M,,0003C0201A0000100070009000B15051C093A
$GNGGA,034528.200,3204.0513,N,11847.0503,E,1,13,0.9,18.3,M,1.2,M,,0003C0201A0000100070009000B15051C093A
$GNGGA,034530.200,3204.0511,N,11847.0518,E,1,12,1.1,16.9,M,1.2,M,,0003C0201A0000100070009000B15071C073A
$GNGGA,034536.200,3204.0511,N,11847.0550,E,1,13,0.9,16.1,M,1.2,M,,0003C0201A0000100070008000915091C0436
$GNGGA,034538.200,3204.0513,N,11847.0562,E,1,13,0.9,14.6,M,1.2,M,,0003C0201A0000100070007000815091C0434
$GNGGA,034540.200,3204.0515,N,11847.0575,E,1,14,0.9,13.0,M,1.2,M,,0003C0201A0000100070007000815091C0434
$GNGGA,034542.400,3204.0517,N,11847.0586,E,1,14,0.9,12.6,M,1.2,M,,0003C0201A0000100070007000816001C022A
$GNGGA,034544.400,3204.0514,N,11847.0602,E,1,12,1.0,14.0,M,1.2,M,,0003C0201A0000100070007000816001C0028
$GNGGA,034546.400,3204.0514,N,11847.0621,E,1,14,0.9,15.4,M,1.2,M,,0003C0201A0000100070007000816001C022A
$GNGGA,034548.400,3204.0514,N,11847.0640,E,1,14,0.9,15.2,M,1.2,M,,0003C0201A0000100070007000815091C0535
$GNGGA,034550.400,3204.0518,N,11847.0660,E,1,13,0.9,16.4,M,1.2,M,,0003C0201A0000100070007000816001C062E
$GNGGA,034552.400,3204.0516,N,11847.0677,E,1,14,0.9,16.3,M,1.2,M,,0003C0201A0000100070007000816001C072F
$GNGGA,034554.400,3204.0512,N,11847.0695,E,1,14,0.9,17.1,M,1.2,M,,0003C0201A0000100070007000816001C062E
$GNGGA,034556.400,3204.0508,N,11847.0712,E,2,14,0.9,16.2,M,1.2,M,,0003C0201A0000100070008000916011C0732
$GNGGA,034558.400,3204.0505,N,11847.0728,E,2,14,0.9,17.1,M,1.2,M,,0003C0201A0000100070008000916011C0732
$GNGGA,034600.400,3204.0504,N,11847.0745,E,2,14,0.9,17.4,M,1.2,M,,0003C0201A0000100070008000916011C0631
$GNGGA,034602.400,3204.0502,N,11847.0761,E,2,14,0.9,17.6,M,1.2,M,,0003C0201A0000100070008000916001C042E
$GNGGA,034604.400,3204.0503,N,11847.0778,E,2,14,0.9,17.3,M,1.2,M,,0003C0201A0000100070009000B15081C0438
$GNGGA,034606.400,3204.0503,N,11847.0792,E,2,14,0.9,16.9,M,1.2,M,,0003C0201A0000100070009000B15091C0338
$GNGGA,034608.400,3204.0501,N,11847.0805,E,2,14,0.9,16.4,M,1.2,M,,0003C0201A0000100070009000B15091C0237
ALIENTEK-HRTDT
$GNGGA,034610.400,3204.0496,N,11847.0820,E,2,14,0.9,17.0,M,1.2,M,,0003C0201A0000100070009000B15091C0338
$GNGGA,034612.400,3204.0497,N,11847.0837,E,2,14,0.9,17.6,M,1.2,M,,0003C0201A0000100070009000B15091C0338
$GNGGA,034614.400,3204.0498,N,11847.0853,E,2,14,0.9,18.3,M,1.2,M,,0003C0201A0000100070008000915081C0233
$GNGGA,034616.400,3204.0497,N,11847.0867,E,2,13,0.9,17.2,M,1.2,M,,0003C0201A0000100070008000915091C0133
$GNGGA,034618.400,3204.0495,N,11847.0889,E,2,14,0.9,16.5,M,1.2,M,,0003C0201A0000100070007000816011C022B
$GNGGA,034620.400,3204.0493,N,11847.0909,E,2,14,0.9,15.9,M,1.2,M,,0003C0201A0000100070007000816011C022B
$GNGGA,034622.400,3204.0491,N,11847.0928,E,2,14,0.9,16.8,M,1.2,M,,0003C0201A0000100070007000816021C022C
$GNGGA,034624.400,3204.0492,N,11847.0942,E,2,14,0.9,17.4,M,1.2,M,,0003C0201A0000100070007000816031C002B
$GNGGA,034626.400,3204.0486,N,11847.0962,E,2,14,0.9,18.4,M,1.2,M,,0003C0201A0000100070007000816031C002B
$GNGGA,034628.400,3204.0480,N,11847.0984,E,2,14,0.9,17.1,M,1.2,M,,0003C0201A0000100070007000816031C002B
$GNGGA,034630.400,3204.0476,N,11847.0993,E,2,14,0.9,15.9,M,1.2,M,,0003C0201A0000100070007000816041C002C
$GNGGA,034632.400,3204.0469,N,11847.1014,E,2,14,0.9,16.3,M,1.2,M,,0003C0201A0000100070007000816041C002C
$GNGGA,034634.600,3204.0461,N,11847.1033,E,2,14,0.9,17.3,M,1.2,M,,0003C0201A0000100070008000916051C002F
$GNGGA,034636.400,3204.0457,N,11847.1047,E,2,14,0.9,16.9,M,1.2,M,,0003C0201A0000100070008000916051C002F
$GNGGA,034638.400,3204.0452,N,11847.1064,E,2,14,0.9,19.4,M,1.2,M,,0003C0201A0000100070009000B16061B083A
$GNGGA,034640.600,3204.0447,N,11847.1082,E,2,14,0.9,19.7,M,1.2,M,,0003C0201A0000100070009000B16071B083B
$GNGGA,034642.400,3204.0445,N,11847.1097,E,2,14,0.9,20.8,M,1.2,M,,0003C0201A0000100070009000B16071B073A
$GNGGA,034644.400,3204.0443,N,11847.1116,E,2,14,0.9,20.1,M,1.2,M,,0003C0201A0000100070009000B16061B093B
$GNGGA,034646.600,3204.0438,N,11847.1137,E,2,14,0.9,19.2,M,1.2,M,,0003C0201A0000100070009000B16061C0033
$GNGGA,034648.600,3204.0436,N,11847.1153,E,2,14,0.9,19.5,M,1.2,M,,0003C0201A0000100070009000B16031B0938
$GNGGA,034650.400,3204.0431,N,11847.1169,E,2,14,0.9,20.3,M,1.2,M,,0003C0201A0000100070009000B16031B0938
$GNGGA,034652.600,3204.0425,N,11847.1189,E,2,14,0.9,21.3,M,1.2,M,,0003C0201A0000100070009000B16021B0735
$GNGGA,034654.400,3204.0423,N,11847.1207,E,2,14,0.9,21.5,M,1.2,M,,0003C0201A0000100070009000B16021B0735
$GNGGA,034656.400,3204.0419,N,11847.1226,E,2,14,0.9,20.6,M,1.2,M,,0003C0201A0000100070009000B16021B0735
$GNGGA,034658.600,3204.0418,N,11847.1243,E,2,14,0.9,20.1,M,1.2,M,,0003C0201A0000100070009000B16041B0939
$GNGGA,034700.400,3204.0417,N,11847.1260,E,2,14,0.9,19.8,M,1.2,M,,0003C0201A0000100070009000B16041B0939
$GNGGA,034702.400,3204.0415,N,11847.1274,E,2,14,0.9,20.2,M,1.2,M,,0003C0201A0000100070009000B16041B0939
$GNGGA,034704.600,3204.0411,N,11847.1294,E,2,14,0.9,20.5,M,1.2,M,,0003C0201A0000100070009000B16031B0736
$GNGGA,034706.400,3204.0409,N,11847.1312,E,2,14,0.9,21.1,M,1.2,M,,0003C0201A0000100070009000B16031B0635
$GNGGA,034708.400,3204.0411,N,11847.1329,E,2,14,0.9,20.2,M,1.2,M,,0003C0201A0000100070009000B16031B0635
$GNGGA,034710.600,3204.0407,N,11847.1346,E,2,13,0.9,20.7,M,1.2,M,,0003C0201A0000100070009000B16031B0635
$GNGGA,034712.400,3204.0409,N,11847.1358,E,2,13,0.9,21.4,M,1.2,M,,0003C0201A0000100070008000916021B0934
$GNGGA,034714.400,3204.0411,N,11847.1372,E,2,13,0.9,21.2,M,1.2,M,,0003C0201A90001000B0008000916011B073E
$GNGGA,034716.600,3204.0412,N,11847.1391,E,2,14,0.9,21.4,M,1.2,M,,0003C0201AB0001000C0008000916001B043D
$GNGGA,034720.600,3204.0414,N,11847.1426,E,2,14,0.9,21.2,M,1.2,M,,0003C0201B00002000E0007000815091B0148
201,43,138,38*6B

$BDGSV,3,3,12,202,38,234,27,204,32,122,38,212,00,003C0201B00002000E0007000815091B0148
$GNGGA,034724.600,3204.0407,N,11847.1462,E,2,12,0.9,22.5,M,1.2,M,,0003C0201B4000200100007000815091B014E
$GNGGA,034726.800,3204.0405,N,11847.1479,E,2,13,0.9,22.6,M,1.2,M,,0003C0201B7000200110008000915081B0153
38,201,43,138,38*6E

$BDGSV,3,3,12,202,38,234,30,204,32,122,35,212,003C0201BE000200140008000915081B015D
$GNGGA,034730.600,3204.0403,N,11847.1504,E,2,14,0.9,22.5,M,1.2,M,,0003C0201B20002000F0008000915081B014C
$GNGGA,034732.600,3204.0406,N,11847.1519,E,2,14,0.9,23.4,M,1.2,M,,0003C0201AB0001000C0009000B15071B0143
$GNGGA,034736.600,3204.0393,N,11847.1546,E,2,13,0.9,24.4,M,1.2,M,,0003C0201B00002000E0009000B15081B014C
$GNGGA,034738.600,3204.0391,N,11847.1560,E,2,14,0.9,24.9,M,1.2,M,,0003C0201B20002000F0009000B15091B0150
34,201,43,138,38*62

$BDGSV,3,3,12,202,38,234,37,204,32,122,39,212,003C0201B4000200100009000B16011B014C
$GNGGA,034744.600,3204.0325,N,11847.1599,E,1,05,8.4,25.4,M,1.2,M,,0003C0201A0000100070000000016091A0929
$GNGGA,034746.600,3204.0371,N,11847.1565,E,1,13,0.9,29.5,M,1.2,M,,0003C0201A0000100070002000216071A0628
$GNGGA,034748.600,3204.0377,N,11847.1598,E,1,14,0.9,30.9,M,1.2,M,,0003C0201A0000100070002000216071A0628
$GNGGA,034750.600,3204.0381,N,11847.1626,E,1,14,0.9,32.2,M,1.2,M,,0003C0201A0000100070002000216081A0427
