$GNGGA,111218.600,3203.6152,N,11847.1259,E,1,14,0.8,23.6,M,1.2,M,,0003C0201BE000200140020002711053009A9
$GNGGA,111220.600,3203.6152,N,11847.1259,E,1,14,0.8,23.6,M,1.2,M,,0003C0201CE0003001B0020002711053009C1
$GNGGA,111222.600,3203.6152,N,11847.1259,E,1,14,0.8,23.6,M,1.2,M,,0003C0201B400020010002000271105310093
$GNGGA,111224.600,3203.6152,N,11847.1259,E,1,14,0.8,23.6,M,1.2,M,,0003C0201A90001000B002000271105310082
$GNGGA,111226.600,3203.6152,N,11847.1259,E,1,14,0.8,23.6,M,1.2,M,,0003C0201AB0001000C001F00261105310083
$GNGGA,111228.600,3203.6154,N,11847.1247,E,1,14,0.8,31.6,M,1.2,M,,0003C0201B400020010001F00261105300999
$GNGGA,111232.600,3203.6154,N,11847.1247,E,1,14,0.8,31.6,M,1.2,M,,00009A63C0201C2000016001E0025110601A6
$GNGGA,111234.600,3203.6154,N,11847.1247,E,1,14,0.8,31.6,M,1.2,M,,00009A63C0201C2000016001E0025110601A6
$GNGGA,111236.600,3203.6154,N,11847.1247,E,1,15,0.8,31.6,M,1.2,M,,0003C0201CE0003001B001D002411063102B6
$GNGGA,111238.600,3203.6154,N,11847.1247,E,1,15,0.8,31.6,M,1.2,M,,0003C0201CE0003001B001D002411063102B6
$GNGGA,111240.600,3203.6154,N,11847.1247,E,1,15,0.8,31.6,M,1.2,M,,0003C0201CE0003001B001D002411063102B6
$GNGGA,111242.600,3203.6154,N,11847.1247,E,1,15,0.8,31.6,M,1.2,M,,0003C0201AB0001000C001E00251106310183
$GNGGA,111246.600,3203.6155,N,11847.1238,E,1,16,0.7,28.0,M,1.2,M,,000883C0201B00002000E001E00251106318D
$GNGGA,111248.600,3203.6155,N,11847.1238,E,1,15,0.9,28.0,M,1.2,M,,0003C0201B20002000F001F00261105310290
$GNGGA,111250.600,3203.6155,N,11847.1238,E,1,14,0.8,28.0,M,1.2,M,,0003C0201B400020010001F00261106310193
$GNGGA,111256.600,3203.6155,N,11847.1238,E,1,15,0.8,28.0,M,1.2,M,,0000B0020002711063100833C01B20002000F
$GNGGA,111300.600,3203.6155,N,11847.1238,E,1,14,0.9,28.0,M,1.2,M,,0003C0201B00002000E001F00261106300994
$GNGGA,111302.600,3203.6149,N,11847.1232,E,1,16,0.8,30.9,M,1.2,M,,0003C0201BB00020013001F0026110631009C
$GNGGA,111304.800,3203.6149,N,11847.1229,E,1,16,0.8,25.2,M,1.2,M,,0003C0201D70004001F001F002611063102C8
$GNGGA,111306.800,3203.6149,N,11847.1229,E,1,16,0.8,25.2,M,1.2,M,,0003C02020000070031001F00261106310409
$GNGGA,111308.800,3203.6149,N,11847.1229,E,1,16,0.7,25.2,M,1.2,M,,0003C0201CE0003001B001F002611063105BD
ALIENTEK-HRTDT
$GNGGA,111314.800,3203.6144,N,11847.1236,E,1,16,0.8,25.2,M,1.2,M,,0003C0201B00002000E001F0026110531018C
$GNGGA,111316.800,3203.6145,N,11847.1244,E,1,17,0.7,25.4,M,1.2,M,,0003C0201B20002000F001F0026110431018E
$GNGGA,111318.800,3203.6146,N,11847.1254,E,1,16,0.7,25.6,M,1.2,M,,0003C0201B400020010001F00261104310090
$GNGGA,111320.800,3203.6151,N,11847.1260,E,1,17,0.7,25.3,M,1.2,M,,0003C0201B700020011001F00261103310093
$GNGGA,111322.800,3203.6156,N,11847.1267,E,1,17,0.7,25.5,M,1.2,M,,0003C0201A70001000A00200027110331027F
$GNGGA,111324.800,3203.6157,N,11847.1271,E,1,16,0.7,25.3,M,1.2,M,,0003C0201A90001000B002000271103310282
$GNGGA,111326.800,3203.6160,N,11847.1277,E,1,17,0.7,27.7,M,1.2,M,,0003C0201AB0001000C002000271102310284
$GNGGA,111330.800,3203.6167,N,11847.1279,E,1,16,0.7,28.2,M,1.2,M,,0003C0201B00002000E002100291102310491
$GNGGA,111332.800,3203.6167,N,11847.1279,E,1,16,0.9,28.2,M,1.2,M,,0003C0201B20002000F002100291102310595
$GNGGA,111334.800,3203.6167,N,11847.1279,E,1,16,0.9,28.2,M,1.2,M,,0003C0201B4000200100022002A1101310599
$GNGGA,111336.800,3203.6171,N,11847.1276,E,1,17,0.7,28.3,M,1.2,M,,0003C0201B4000200100022002A110131069A
$GNGGA,111338.800,3203.6179,N,11847.1271,E,1,16,0.7,25.3,M,1.2,M,,0003C0201B20002000F0023002B1100310799
$GNGGA,111342.800,3203.6196,N,11847.1270,E,1,17,0.8,26.9,M,1.2,M,,0003C0201BE000200140024002C10093200AE
$GNGGA,111344.800,3203.6205,N,11847.1271,E,1,17,0.7,26.1,M,1.2,M,,0003C0201CE0003001B0024002C10093201C7
GSV,3,3,11,204,00,000,29,202,00,000,28,205,00,000,29*63
$GNRMC,111343C0201D70004001F0023002B10083201D2
$GNGGA,111349.000,3203.6224,N,11847.1273,E,1,16,0.8,26.0,M,1.2,M,,0003C0201D70004001F0023002B10073203D3
$GNGGA,111351.000,3203.6231,N,11847.1271,E,1,16,0.8,25.1,M,1.2,M,,0003C0201D70004001F0023002B10073204D4
BDGSV,3,3,11,204,00,000,28,202,00,000,37,205,00,000,30*64
$GNRMC,1113C0201D20004001D0022002A10073205CC
$GNGGA,111355.000,3203.6241,N,11847.1257,E,1,16,0.8,24.7,M,1.2,M,,0003C0201D70004001F0022002A10073207D5
$GNGGA,111357.000,3203.6248,N,11847.1252,E,1,17,0.8,25.1,M,1.2,M,,0003C0201DB000400210022002A10073208DC
BDGSV,3,3,11,204,00,000,29,202,00,000,31,205,00,000,30*63
$GNRMC,1113C0201DB000400210022002A10073209DD
$GNGGA,111401.000,3203.6263,N,11847.1238,E,1,17,0.8,24.8,M,1.2,M,,0003C0201C9000300190022002A10063300B9
$GNGGA,111403.000,3203.6274,N,11847.1223,E,1,16,0.9,26.3,M,1.2,M,,0003C0201C7000300180023002B10063301B9
DGSV,3,3,11,204,00,000,27,202,00,000,31,205,00,000,25*69
$GNRMC,11143C0201BE000200140023002B10063301AB
$GNGGA,111407.000,3203.6279,N,11847.1205,E,1,17,0.8,27.0,M,1.2,M,,0003C0201A70001000A0022002A1006330288
$GNGGA,111409.000,3203.6283,N,11847.1201,E,1,17,1.0,26.7,M,1.2,M,,0003C0201B7000200110022002A10063303A1

$BDGSV,3,3,11,204,00,000,38,202,00,000,26,205,00,000,24*60
$GNRMC,13C0201BB000200130021002910063303A5
$GNGGA,111413.000,3203.6283,N,11847.1201,E,1,17,0.9,26.6,M,1.2,M,,0003C0201BE000200140021002910073304AB
$GNGGA,111415.000,3203.6283,N,11847.1201,E,1,16,1.1,26.6,M,1.2,M,,0003C0201B7000200110021002910073304A1
BDGSV,3,3,10,204,00,000,25,202,00,000,26*6C
$GNRMC,111416.800,A,32033C0201C7000300180021002910073304B9
$GNGGA,111419.000,3203.6283,N,11847.1201,E,1,16,0.8,26.6,M,1.2,M,,0003C0201C2000300160021002910073304B2
$GNGGA,111422.200,3203.6282,N,11847.1200,E,0,00,0.0,30.6,M,0.0,M,,0003C0201A000010007000000001006330333
$GNGGA,111424.200,3203.6252,N,11847.1005,E,1,12,1.2,86.6,M,1.2,M,,0003C0201A000010007000200021007330338
$GNGGA,111426.200,3203.6257,N,11847.1009,E,1,13,1.1,86.8,M,1.2,M,,0003C0201A00001000700050006100633033E
$GNGGA,111428.200,3203.6250,N,11847.1021,E,1,13,1.1,82.8,M,1.2,M,,0003C0201A000010007000C000E100633034D
$GNGGA,111430.200,3203.6253,N,11847.1032,E,1,14,0.9,77.7,M,1.2,M,,0003C0201A00001000700130017100633035D
$GNGGA,111432.200,3203.6247,N,11847.1027,E,1,14,0.9,76.5,M,1.2,M,,0003C0201A000010007001A0020100633036D
$GNGGA,111434.200,3203.6246,N,11847.1019,E,1,14,0.9,79.0,M,1.2,M,,0003C0201A000010007001F00261006330378
$GNGGA,111436.200,3203.6248,N,11847.1007,E,1,15,0.8,78.5,M,1.2,M,,0003C0201A0000100070022002A100533037E
$GNGGA,111438.200,3203.6256,N,11847.0994,E,1,15,0.8,75.5,M,1.2,M,,0003C0201A0000100070022002A100533047F
$GNGGA,111440.200,3203.6258,N,11847.0978,E,1,15,1.0,76.1,M,1.2,M,,0003C0201A0000100070022002A100433047E
$GNGGA,111442.200,3203.6256,N,11847.0967,E,1,15,0.8,76.6,M,1.2,M,,0003C0201A0000100070022002A100433057F
$GNGGA,111444.200,3203.6260,N,11847.0954,E,1,16,0.7,77.2,M,1.2,M,,0003C0201A0000100070022002A1004330680
$GNGGA,111446.200,3203.6262,N,11847.0942,E,1,17,0.7,76.2,M,1.2,M,,0003C0201A0000100070023002B1004330884
$GNGGA,111448.200,3203.6264,N,11847.0929,E,1,16,0.8,77.2,M,1.2,M,,0003C0201A0000100070023002B1004330884
$GNGGA,111450.200,3203.6264,N,11847.0920,E,1,16,0.8,77.2,M,1.2,M,,0003C0201A0000100070023002B1004330985
$GNGGA,111452.200,3203.6266,N,11847.0909,E,1,17,0.7,77.4,M,1.2,M,,0003C0201A0000100070023002B1004330985
$GNGGA,111454.200,3203.6266,N,11847.0900,E,1,17,0.7,77.8,M,1.2,M,,0003C0201A0000100070022002A1003330982
$GNGGA,111456.200,3203.6267,N,11847.0894,E,1,17,0.7,77.5,M,1.2,M,,0003C0201A0000100070022002A1004330983
$GNGGA,111458.200,3203.6268,N,11847.0886,E,1,17,0.7,77.5,M,1.2,M,,0003C0201A000010007002000271003340075
$GNGGA,111500.200,3203.6269,N,11847.0878,E,1,17,0.7,77.4,M,1.2,M,,0003C0201A000010007002000271003340075
$GNGGA,111502.200,3203.6274,N,11847.0870,E,1,17,0.7,75.0,M,1.2,M,,0003C0201A000010007001F00261003340073
$GNGGA,111504.200,3203.6282,N,11847.0857,E,1,17,0.7,72.4,M,1.2,M,,0003C0201A000010007001F00261004340074
$GNGGA,111506.200,3203.6293,N,11847.0845,E,1,16,0.8,70.3,M,1.2,M,,0003C0201A000010007001F00261004340175
$GNGGA,111508.200,3203.6301,N,11847.0836,E,1,17,0.7,69.9,M,1.2,M,,0003C0201A000010007001F00261004340175
$GNGGA,111510.200,3203.6306,N,11847.0828,E,1,17,0.7,68.5,M,1.2,M,,0003C0201A000010007001F00261004340276
ALIENTEK-HRTDT
$GNGGA,111512.400,3203.6311,N,11847.0815,E,1,17,0.7,67.6,M,1.2,M,,0003C0201A000010007002000271004340278
$GNGGA,111514.200,3203.6312,N,11847.0809,E,1,17,0.8,65.2,M,1.2,M,,0003C0201A000010007002000271004340278
$GNGGA,111516.200,3203.6314,N,11847.0802,E,1,17,0.7,63.4,M,1.2,M,,0003C0201A000010007002000271004340278
$GNGGA,111518.400,3203.6314,N,11847.0794,E,1,17,0.7,65.1,M,1.2,M,,0003C0201A00001000700210029100334027A
$GNGGA,111520.200,3203.6311,N,11847.0789,E,1,17,0.7,66.5,M,1.2,M,,0003C0201A00001000700210029100334027A
$GNGGA,111522.200,3203.6312,N,11847.0781,E,1,17,0.7,67.5,M,1.2,M,,0003C0201A0000100070022002A100434027D
$GNGGA,111524.400,3203.6313,N,11847.0772,E,1,16,0.8,70.1,M,1.2,M,,0003C0201A0000100070022002A100334017B
$GNGGA,111526.200,3203.6313,N,11847.0764,E,1,16,0.8,72.8,M,1.2,M,,0003C0201A0000100070022002A100434017C
$GNGGA,111528.200,3203.6313,N,11847.0759,E,1,17,0.7,76.4,M,1.2,M,,0003C0201A0000100070022002A100434017C
$GNGGA,111530.400,3203.6315,N,11847.0753,E,1,17,0.8,75.2,M,1.2,M,,0003C0201A00001000700210029100434017A
$GNGGA,111532.200,3203.6315,N,11847.0743,E,1,17,0.7,73.3,M,1.2,M,,0003C0201A00001000700210029100434017A
$GNGGA,111534.200,3203.6318,N,11847.0736,E,1,17,0.9,72.4,M,1.2,M,,0003C0201A00001000700210029100434017A
$GNGGA,111536.400,3203.6321,N,11847.0727,E,1,17,0.7,70.4,M,1.2,M,,0003C0201A00001000700210029100434017A
$GNGGA,111538.200,3203.6329,N,11847.0720,E,1,17,0.7,70.2,M,1.2,M,,0003C0201A00001000700210029100434017A
$GNGGA,111540.200,3203.6334,N,11847.0712,E,1,17,0.8,68.5,M,1.2,M,,0003C0201A00001000700210029100434017A
$GNGGA,111542.400,3203.6337,N,11847.0700,E,1,16,0.8,64.8,M,1.2,M,,0003C0201A00001000700210029100434017A
$GNGGA,111544.200,3203.6341,N,11847.0692,E,1,17,0.7,62.1,M,1.2,M,,0003C0201A00001000700210029100434017A
$GNGGA,111546.200,3203.6350,N,11847.0677,E,1,17,0.7,60.5,M,1.2,M,,0003C0201A00001000700210029100434017A
$GNGGA,111548.400,3203.6350,N,11847.0661,E,1,16,0.8,57.7,M,1.2,M,,0003C0201A0000100070022002A100434017C
$GNGGA,111550.200,3203.6352,N,11847.0653,E,1,16,0.8,56.4,M,1.2,M,,0003C0201A0000100070022002A100434017C
$GNGGA,111552.200,3203.6352,N,11847.0645,E,1,15,0.8,56.2,M,1.2,M,,0003C0201A0000100070023002B100434017E
$GNGGA,111554.400,3203.6353,N,11847.0633,E,1,17,0.8,54.3,M,1.2,M,,0003C0201A0000100070024002C1004340180
$GNGGA,111556.200,3203.6352,N,11847.0621,E,1,14,1.0,54.8,M,1.2,M,,0003C0201A0000100070026002F1005340186
$GNGGA,111558.200,3203.6352,N,11847.0609,E,1,15,0.9,53.7,M,1.2,M,,0003C0201A00001000700280031100534018A
$GNGGA,111600.400,3203.6353,N,11847.0594,E,1,15,1.0,51.7,M,1.2,M,,0003C0201A000010007002A0034100534018F
$GNGGA,111602.400,3203.6353,N,11847.0585,E,1,15,0.9,52.6,M,1.2,M,,0003C0201A000010007002C00361005340092
$GNGGA,111604.400,3203.6355,N,11847.0575,E,1,16,0.9,52.4,M,1.2,M,,0003C0201A000010007002C00361005340092
$BDGSV,3,3,09,204,00,000,33*67
$GNRMC,111606.400,A,3203.6355,N,118473C0201A000010007002F003A10053309A1
$GNGGA,111608.400,3203.6356,N,11847.0553,E,1,13,1.6,52.0,M,1.2,M,,0003C0201A0000100070031003D10053309A6
$GNGGA,111610.600,3203.6359,N,11847.0541,E,1,13,1.6,53.7,M,1.2,M,,0003C0201A0000100070031003D10053308A5
9,204,00,000,31*65
$GNRMC,111612.400,A,3203.6363,N,11847.0535,E,001.3C0201A0000100070032003E10063308A8
$GNGGA,111614.400,3203.6365,N,11847.0530,E,1,13,1.6,54.4,M,1.2,M,,0003C0201A0000100070032003E10063308A8
$GNGGA,111616.400,3203.6367,N,11847.0521,E,1,14,1.0,53.3,M,1.2,M,,0003C0201A0000100070032003E10063307A7
09,204,00,000,25*60
$GNRMC,111618.400,A,3203.6369,N,11847.0514,E,0013C0201A0000100070032003E10063308A8
$GNGGA,111620.400,3203.6372,N,11847.0508,E,1,13,1.1,52.0,M,1.2,M,,0003C0201A0000100070032003E10063309A9
$GNGGA,111622.400,3203.6371,N,11847.0504,E,1,13,1.1,54.6,M,1.2,M,,0003C0201A90001000B0032003E10063309B6
$GNGGA,111626.401,3203.6344,N,11847.0485,E,1,04,3.5,55.2,M,1.2,M,,00000000000940D00201D020008D80D0020D8
47.0421,E,000.0,000.0,101120,,,A*7E
$GNVTG,000.0,T,,M,000.0,N,000.0,3C0201A00001000700020002100633093D
GNGGA,111630.400,3203.6286,N,11847.0419,E,1,10,1.1,80.1,M,1.2,M,,00003C0201A000010007000600071006330946
4.200,A,3203.6286,N,11847.0417,E,001.0,208.8,101120,,,A*73
$GNVTG,203C0201A0000100070015001A1006330867
$GNGGA,111636.400,3203.6284,N,11847.0412,E,1,12,1.0,28.8,M,1.2,M,,0003C0201A000010007001E0025100633087B
$GNGGA,111638.600,3203.6280,N,11847.0408,E,1,14,0.8,26.0,M,1.2,M,,0003C0201A0000100070023002B1005330885
$GNGGA,111640.600,3203.6274,N,11847.0406,E,1,15,0.9,27.0,M,1.2,M,,0003C0201A00001000700270030100533088E
$GNGGA,111642.600,3203.6268,N,11847.0406,E,1,14,0.9,30.0,M,1.2,M,,0003C0201A00001000700270030100533098F
$GNGGA,111644.600,3203.6265,N,11847.0406,E,1,15,0.8,29.2,M,1.2,M,,0003C0201A00001000700270030100533098F
$GNGGA,111646.600,3203.6260,N,11847.0408,E,1,14,0.9,25.7,M,1.2,M,,0003C0201A00001000700270030100533098F
$GNGGA,111648.600,3203.6256,N,11847.0405,E,1,15,0.8,26.4,M,1.2,M,,0003C0201A0000100070026002F1005340186
$GNGGA,111650.600,3203.6252,N,11847.0403,E,1,15,0.8,28.1,M,1.2,M,,0003C0201A0000100070026002F1005340186
$GNGGA,111652.600,3203.6245,N,11847.0407,E,1,15,0.8,35.7,M,1.2,M,,0003C0201A0000100070025002E1005340083
$GNGGA,111654.600,3203.6241,N,11847.0406,E,1,14,0.8,37.9,M,1.2,M,,0003C0201A0000100070025002E1005340083
$GNGGA,111656.600,3203.6234,N,11847.0404,E,1,15,0.8,39.1,M,1.2,M,,0003C0201A0000100070025002E1005340083
$GNGGA,111658.600,3203.6228,N,11847.0401,E,1,15,0.8,41.5,M,1.2,M,,0003C0201A0000100070025002E100533098B
$GNGGA,111700.600,3203.6224,N,11847.0396,E,1,13,0.8,44.1,M,1.2,M,,0003C0201A0000100070025002E100533098B
$GNGGA,111702.600,3203.6221,N,11847.0394,E,1,14,0.8,44.8,M,1.2,M,,0003C0201A0000100070025002E100533098B
$GNGGA,111704.600,3203.6217,N,11847.0389,E,1,15,0.8,44.8,M,1.2,M,,0003C0201A0000100070025002E100533098B
$GNGGA,111706.600,3203.6211,N,11847.0383,E,1,15,0.8,44.0,M,1.2,M,,0003C0201A0000100070025002E1005340083
$GNGGA,111708.600,3203.6201,N,11847.0378,E,1,16,0.7,43.6,M,1.2,M,,0003C0201A0000100070025002E1006340084
$GNGGA,111710.600,3203.6194,N,11847.0377,E,1,15,0.7,42.2,M,1.2,M,,0003C0201A0000100070026002F100633098E
ALIENTEK-HRTDT
$GNGGA,111712.600,3203.6184,N,11847.0378,E,1,16,0.8,43.6,M,1.2,M,,0003C0201A0000100070025002E100633098C
$GNGGA,111714.600,3203.6180,N,11847.0381,E,1,17,0.7,42.7,M,1.2,M,,0003C0201A0000100070025002E100633098C
$GNGGA,111716.600,3203.6174,N,11847.0380,E,1,17,0.7,41.5,M,1.2,M,,0003C0201A0000100070025002E100633098C
$GNGGA,111718.600,3203.6172,N,11847.0377,E,1,17,0.8,38.6,M,1.2,M,,0003C0201A0000100070025002E100633098C
$GNGGA,111720.600,3203.6173,N,11847.0372,E,1,17,0.7,37.4,M,1.2,M,,0003C0201A0000100070025002E100633098C
$GNGGA,111722.600,3203.6177,N,11847.0368,E,1,17,0.7,38.8,M,1.2,M,,0003C0201A0000100070024002C1006330888
$GNGGA,111724.600,3203.6181,N,11847.0364,E,1,16,0.7,38.4,M,1.2,M,,0003C0201A0000100070024002C1006330888
$GNGGA,111726.600,3203.6182,N,11847.0360,E,1,16,0.8,38.6,M,1.2,M,,0003C0201A0000100070024002C1006330888
$GNGGA,111728.600,3203.6184,N,11847.0353,E,1,17,0.7,37.9,M,1.2,M,,0003C0201A0000100070024002C1007330889
$GNGGA,111730.600,3203.6186,N,11847.0344,E,1,17,0.7,36.7,M,1.2,M,,0003C0201A0000100070024002C1007330889
$GNGGA,111732.800,3203.6186,N,11847.0332,E,1,17,0.7,38.3,M,1.2,M,,0003C0201A0000100070024002C1007330889
$GNGGA,111734.800,3203.6187,N,11847.0325,E,1,16,0.7,37.5,M,1.2,M,,0003C0201A0000100070025002E100733078B
$GNGGA,111736.800,3203.6186,N,11847.0320,E,1,15,0.8,39.8,M,1.2,M,,0003C0201A0000100070025002E100733078B
$GNGGA,111738.800,3203.6189,N,11847.0317,E,1,15,0.8,41.5,M,1.2,M,,0003C0201A0000100070026002F100733078D
$GNGGA,111740.800,3203.6192,N,11847.0310,E,1,15,0.8,41.4,M,1.2,M,,0003C0201A0000100070026002F100733078D
$GNGGA,111742.800,3203.6195,N,11847.0302,E,1,17,0.7,41.8,M,1.2,M,,0003C0201A0000100070026002F100733078D
$GNGGA,111744.800,3203.6195,N,11847.0291,E,1,16,0.7,41.5,M,1.2,M,,0003C0201A0000100070025002E100733078B
$GNGGA,111746.800,3203.6191,N,11847.0256,E,1,16,0.7,37.7,M,1.2,M,,0003C0201A0000100070024002C1007330788
$GNGGA,111748.800,3203.6196,N,11847.0246,E,1,16,0.7,38.0,M,1.2,M,,0003C0201A0000100070023002B1007330887
$GNGGA,111750.800,3203.6199,N,11847.0227,E,1,17,0.7,35.9,M,1.2,M,,0003C0201A0000100070023002B1007330786
$GNGGA,111752.800,3203.6201,N,11847.0214,E,1,17,0.7,34.5,M,1.2,M,,0003C0201A0000100070022002A1007330784
$GNGGA,111754.800,3203.6206,N,11847.0199,E,1,17,0.7,33.7,M,1.2,M,,0003C0201A0000100070022002A1007330784
$GNGGA,111756.800,3203.6206,N,11847.0188,E,1,16,0.7,36.8,M,1.2,M,,0003C0201A0000100070022002A1007330784
$GNGGA,111758.800,3203.6209,N,11847.0177,E,1,17,0.7,34.3,M,1.2,M,,0003C0201A0000100070023002B1007330786
$GNGGA,111800.800,3203.6209,N,11847.0168,E,1,16,0.8,33.3,M,1.2,M,,0003C0201A0000100070023002B1007330786
$GNGGA,111802.800,3203.6211,N,11847.0159,E,1,17,0.8,31.4,M,1.2,M,,0003C0201A0000100070024002C1007330788
$GNGGA,111804.800,3203.6212,N,11847.0151,E,1,17,0.7,29.6,M,1.2,M,,0003C0201A0000100070025002E100733078B
$GNGGA,111806.800,3203.6216,N,11847.0133,E,1,17,0.8,26.2,M,1.2,M,,0003C0201A0000100070025002E100733078B
$GNGGA,111808.800,3203.6220,N,11847.0122,E,1,17,0.9,25.1,M,1.2,M,,0003C0201A0000100070026002F100833088F
$GNGGA,111810.800,3203.6220,N,11847.0108,E,1,17,0.8,24.5,M,1.2,M,,0003C0201A0000100070026002F100833088F
$GNGGA,111812.800,3203.6222,N,11847.0096,E,1,17,0.8,23.4,M,1.2,M,,0003C0201A0000100070026002F100833078E
$GNGGA,111814.800,3203.6228,N,11847.0076,E,1,16,0.9,22.4,M,1.2,M,,0003C0201A0000100070026002F100733078D
$GNGGA,111816.800,3203.6232,N,11847.0066,E,1,17,0.8,22.5,M,1.2,M,,0003C0201A0000100070026002F100733088E
$GNGGA,111818.800,3203.6235,N,11847.0055,E,1,17,0.8,18.9,M,1.2,M,,0003C0201A0000100070025002E100733098D
$GNGGA,111820.800,3203.6237,N,11847.0044,E,1,17,0.8,17.4,M,1.2,M,,0003C0201A0000100070024002C100733098A
$GNGGA,111822.800,3203.6241,N,11847.0033,E,1,17,0.8,17.0,M,1.2,M,,0003C0201A0000100070023002B1007330988
$GNGGA,111824.800,3203.6241,N,11847.0024,E,1,17,0.8,20.3,M,1.2,M,,0003C0201A0000100070023002B1007330988
$GNGGA,111826.800,3203.6246,N,11847.0016,E,1,17,0.8,22.7,M,1.2,M,,0003C0201A90001000B0023002B1007330995
$GNGGA,111829.000,3203.6250,N,11846.9998,E,1,17,0.8,24.6,M,1.2,M,,0003C0201AB0001000C0022002A1006330894
$GNGGA,111833.000,3203.6258,N,11846.9973,E,1,16,0.7,25.1,M,1.2,M,,0003C0201B00002000E0022002A100633089C
$GNGGA,111835.000,3203.6265,N,11846.9964,E,1,16,0.7,25.2,M,1.2,M,,0003C0201B20002000F0022002A100633089F
$GNGGA,111837.000,3203.6271,N,11846.9957,E,1,16,0.7,24.8,M,1.2,M,,0003C0201B40002001000210029100633079F
$GNGGA,111839.000,3203.6268,N,11846.9944,E,1,17,0.8,25.7,M,1.2,M,,0003C0201B7000200110021002910063307A3
$GNGGA,111841.000,3203.6271,N,11846.9931,E,1,17,0.7,23.2,M,1.2,M,,0003C0201C0000300150021002910053306AF
$GNGGA,111843.000,3203.6276,N,11846.9926,E,1,17,0.8,22.4,M,1.2,M,,0003C0201C0000300150020002710053307AD
$GNGGA,111845.000,3203.6280,N,11846.9918,E,1,17,0.7,22.6,M,1.2,M,,0003C0201B40002001000200027100533069A
$GNGGA,111849.000,3203.6291,N,11846.9902,E,1,17,0.8,24.8,M,1.2,M,,0003C0201B00002000E002000271005330593
$GNGGA,111853.000,3203.6293,N,11846.9880,E,1,15,0.8,30.5,M,1.2,M,,0003C0201B4000200100022002A100533059E
$GNGGA,111855.000,3203.6294,N,11846.9875,E,1,17,0.8,29.9,M,1.2,M,,0003C0201BB000200130022002A10053306A9
$GNGGA,111857.000,3203.6296,N,11846.9875,E,1,17,0.8,30.3,M,1.2,M,,0003C0201B20002000F0023002B100433069D
$GNGGA,111859.000,3203.6302,N,11846.9874,E,1,17,0.8,31.2,M,1.2,M,,0003C0201AB0001000C0024002C1004330694
$GNGGA,111903.000,3203.6317,N,11846.9857,E,1,17,0.7,28.1,M,1.2,M,,0003C0201B00002000E0024002C100333089D
$GNGGA,111905.000,3203.6328,N,11846.9848,E,1,17,0.8,23.0,M,1.2,M,,0003C0201B20002000F0024002C10033309A1
$GNGGA,111907.000,3203.6340,N,11846.9843,E,1,17,0.8,17.6,M,1.2,M,,0003C0201B7000200110024002C10033400A0
$GNGGA,111909.000,3203.6350,N,11846.9840,E,1,17,0.8,16.7,M,1.2,M,,0003C0201E0000500230023002B10033401DD
$GNGGA,111911.000,3203.6365,N,11846.9834,E,1,17,0.8,14.1,M,1.2,M,,0003C0201C2000300160023002B10023402B0
ALIENTEK-HRTDT
$GNGGA,111917.000,3203.6401,N,11846.9810,E,1,17,0.8,10.3,M,1.2,M,,0003405FF3C02020E000700370022002A1001
$GNGGA,111919.000,3203.6413,N,11846.9805,E,1,17,0.8,10.2,M,1.2,M,,000263C0202150008003A0022002A1001352B
$GNGGA,111921.000,3203.6421,N,11846.9803,E,1,17,0.7,13.3,M,1.2,M,,0003C02023A000A004A0022002A1001350565
$GNGGA,111923.000,3203.6430,N,11846.9799,E,1,17,0.7,14.4,M,1.2,M,,0003C020235000A00480022002A1001350861
$GNGGA,111925.000,3203.6440,N,11846.9795,E,1,17,0.8,15.3,M,1.2,M,,0003C020235000A00480022002A1001350861
$GNGGA,111927.000,3203.6451,N,11846.9789,E,1,16,0.8,16.7,M,1.2,M,,0003C02022E000900450023002B1001360152
$GNGGA,111929.000,3203.6467,N,11846.9779,E,1,16,0.9,17.3,M,1.2,M,,0003C020235000A00480024002C1001360361
$GNGGA,111931.200,3203.6480,N,11846.9775,E,1,15,0.8,18.7,M,1.2,M,,0003C020209000700350024002C100036041F
$GNGGA,111933.000,3203.6489,N,11846.9776,E,1,16,0.9,18.6,M,1.2,M,,0003C0201EE000500290025002E10003603F7
$GNGGA,111935.000,3203.6498,N,11846.9774,E,1,15,0.8,18.9,M,1.2,M,,0003C0201E7000500260025002E10003603ED
$GNGGA,111937.200,3203.6508,N,11846.9773,E,1,16,0.8,20.3,M,1.2,M,,0003C0201F20006002B0025002E10003602FD
$GNGGA,111939.000,3203.6515,N,11846.9775,E,1,16,0.7,20.7,M,1.2,M,,0003C0202200009003F0025002E1000360243
$GNGGA,111941.000,3203.6522,N,11846.9778,E,1,16,0.7,21.9,M,1.2,M,,0003C020223000900400025002E1000360247
$GNGGA,111943.200,3203.6529,N,11846.9781,E,1,15,0.8,19.8,M,1.2,M,,0003C02025F000C005A0025002E10003603A1
$GNGGA,111945.000,3203.6535,N,11846.9785,E,1,15,0.8,18.6,M,1.2,M,,0003C02025F000C005A0025002E10003603A1
$GNGGA,111947.000,3203.6541,N,11846.9789,E,1,15,0.8,17.0,M,1.2,M,,0003C020359001C00C70026002F0F09360525
$GNGGA,111949.200,3203.6546,N,11846.9797,E,1,15,0.8,17.0,M,1.2,M,,0003C020359001C00C70026002F0F09360525
$GNGGA,111951.000,3203.6548,N,11846.9802,E,1,15,1.0,16.8,M,1.2,M,,0003C020359001C00C70026002F0F09360525
$GNGGA,111953.000,3203.6544,N,11846.9818,E,1,15,1.0,17.0,M,1.2,M,,0003C020359001C00C7002700300F08360829
$GNGGA,111955.200,3203.6540,N,11846.9835,E,1,14,0.9,16.0,M,1.2,M,,0003C020373001E00D2002700300F08360951
$GNGGA,111957.000,3203.6538,N,11846.9848,E,1,14,0.9,16.2,M,1.2,M,,0003C020352001C00C4002700300F08360920
$GNGGA,111959.000,3203.6537,N,11846.9862,E,1,14,0.9,15.6,M,1.2,M,,0003C0203AA002100EA0026002F0F08370099
$GNGGA,112001.200,3203.6539,N,11846.9875,E,1,13,1.4,15.7,M,1.2,M,,0003C0203AA002100EA0026002F0F08370099
$GNGGA,112003.000,3203.6541,N,11846.9884,E,1,13,1.4,15.0,M,1.2,M,,0003C020359001C00C70025002E0F0837011F
$GNGGA,112005.000,3203.6543,N,11846.9898,E,1,13,1.4,14.7,M,1.2,M,,0003C0202FB0016009E0025002E0F08370292$GNGGA,112007.200,3203.6549,N,11846.9912,E,1,13,1.2,14.3,M,1.2,M,,0003C0202B8001200810025002E0F0837022E$GNGGA,112009.000,3203.6552,N,11846.9924,E,1,13,1.4,12.9,M,1.2,M,,0003C020293001000710025002E0F093702F8$GNGGA,112011.000,3203.6555,N,11846.9932,E,1,13,1.6,13.2,M,1.2,M,,0003C02027F000E00680026002F0F093703DC$GNGGA,112015.200,3203.6558,N,11846.9961,E,1,13,1.4,13.5,M,1.2,M,,0003C02024A000B0051002700300F0937038F$GNGGA,112017.000,3203.6552,N,11846.9974,E,1,14,1.0,13.7,M,1.2,M,,0003C02023A000A004A002800310F09370379$GNGGA,112019.200,3203.6546,N,11846.9989,E,1,14,1.0,13.6,M,1.2,M,,0003C02022700090042002800310F0937035D$GNGGA,112021.400,3203.6538,N,11847.0003,E,1,13,1.4,12.9,M,1.2,M,,0003C02020E00070037002800310F09370236$GNGGA,112023.200,3203.6539,N,11847.0012,E,1,13,1.4,12.2,M,1.2,M,,0003C02022E0009004500280031100037035F19,212,29,071,38*65
$GNRMC,112025.200,A,3203.6540,N,11847.0017,E,0003C0202200009003F002700301000
370349
$GNGGA,112029.800,3203.6540,N,11847.0018,E,0,00,0.0,9.2,M,0.0,M,,00003C0201A000010007000000001000370331
$GNGGA,112031.800,3203.6597,N,11847.0090,E,1,10,1.5,29.9,M,1.2,M,,0003C0201A000010007000200021001370336
$GNGGA,112033.800,3203.6602,N,11847.0088,E,1,12,1.4,14.8,M,1.2,M,,0003C0201A00001000700060007100137033F
$GNGGA,112037.800,3203.6599,N,11847.0089,E,1,12,1.4,3.3,M,1.2,M,,00003C0201A0000100070015001A1001370361
$GNGGA,112039.800,3203.6596,N,11847.0099,E,1,12,1.4,3.3,M,1.2,M,,00003C0201A000010007001C0022100137026F
$GNGGA,112041.800,3203.6597,N,11847.0107,E,1,13,0.9,4.7,M,1.2,M,,00003C0201A00001000700210029100137017A
$GNGGA,112043.800,3203.6600,N,11847.0115,E,1,13,1.0,9.0,M,1.2,M,,00003C0201A0000100070025002E1001370183
$GNGGA,112045.800,3203.6600,N,11847.0125,E,1,12,1.2,9.8,M,1.2,M,,00003C0201A0000100070025002E1001370183
$GNGGA,112047.800,3203.6590,N,11847.0137,E,1,12,1.2,9.4,M,1.2,M,,00003C0201A0000100070025002E1000370081
$GNGGA,112049.800,3203.6589,N,11847.0148,E,1,13,1.0,10.8,M,1.2,M,,0003C0201A0000100070025002E1000360989
$GNGGA,112051.800,3203.6580,N,11847.0160,E,1,13,1.1,11.2,M,1.2,M,,0003C0201A0000100070025002E1000360989
$GNGGA,112054.000,3203.6580,N,11847.0171,E,1,13,1.0,11.4,M,1.2,M,,0003C0201A0000100070025002E1000360686
$GNGGA,112056.000,3203.6580,N,11847.0180,E,1,12,1.0,11.3,M,1.2,M,,0003C0201A0000100070025002E1000360686
$GNGGA,112058.000,3203.6578,N,11847.0190,E,1,13,1.1,10.9,M,1.2,M,,0003C0201A0000100070025002E1000360787
$GNGGA,112100.000,3203.6579,N,11847.0200,E,1,13,1.0,11.4,M,1.2,M,,0003C0201A0000100070025002E0F0936068E
$GNGGA,112102.000,3203.6579,N,11847.0213,E,1,14,0.8,11.4,M,1.2,M,,0003C0201A0000100070025002E0F0936068E
$GNGGA,112104.000,3203.6579,N,11847.0225,E,1,14,0.9,12.2,M,1.2,M,,0003C0201A0000100070024002C0F0936068B
$GNGGA,112106.000,3203.6583,N,11847.0242,E,1,15,0.8,13.8,M,1.2,M,,0003C0201A0000100070024002C0F0836078B
$GNGGA,112108.000,3203.6583,N,11847.0258,E,1,15,0.8,14.1,M,1.2,M,,0003C0201A0000100070024002C0F0836078B
$GNGGA,112110.000,3203.6587,N,11847.0270,E,1,15,0.9,14.9,M,1.2,M,,0003C0201A0000100070024002C0F0836078B
$GNGGA,112112.000,3203.6592,N,11847.0279,E,1,16,0.8,15.2,M,1.2,M,,0003C0201A0000100070023002B0F07360788
$GNGGA,112114.000,3203.6598,N,11847.0284,E,1,17,0.7,13.8,M,1.2,M,,0003C0201A0000100070023002B0F07360788
ALIENTEK-HRTDT
$GNGGA,112116.000,3203.6604,N,11847.0287,E,1,17,0.7,12.8,M,1.2,M,,0003C0201A0000100070023002B0F07360889
$GNGGA,112118.000,3203.6616,N,11847.0296,E,1,16,0.9,12.4,M,1.2,M,,0003C0201A0000100070023002B0F07370082
$GNGGA,112120.000,3203.6629,N,11847.0299,E,1,17,0.7,11.9,M,1.2,M,,0003C0201A0000100070024002C0F07370185
$GNGGA,112122.000,3203.6645,N,11847.0301,E,1,16,0.7,11.3,M,1.2,M,,0003C0201A0000100070024002C0F06370184
$GNGGA,112124.000,3203.6661,N,11847.0302,E,1,17,0.7,12.8,M,1.2,M,,0003C0201A0000100070024002C0F06370184
$GNGGA,112126.000,3203.6676,N,11847.0304,E,1,17,0.7,12.5,M,1.2,M,,0003C0201A0000100070024002C0F06370184
$GNGGA,112128.000,3203.6688,N,11847.0301,E,1,17,0.7,12.9,M,1.2,M,,0003C0201A0000100070024002C0F06370184
$GNGGA,112130.000,3203.6699,N,11847.0297,E,1,17,0.7,12.2,M,1.2,M,,0003C0201A0000100070024002C0F06370386
$GNGGA,112132.000,3203.6712,N,11847.0293,E,1,17,0.7,12.8,M,1.2,M,,0003C0201A0000100070024002C0F06370487
$GNGGA,112134.000,3203.6724,N,11847.0288,E,1,16,0.7,13.1,M,1.2,M,,0003C0201A0000100070024002C0F05370587
$GNGGA,112136.000,3203.6735,N,11847.0283,E,1,16,0.7,12.8,M,1.2,M,,0003C0201A0000100070025002E0F0537068B
$GNGGA,112138.000,3203.6743,N,11847.0275,E,1,17,0.8,12.8,M,1.2,M,,0003C0201A0000100070025002E0F0537068B
$GNGGA,112140.000,3203.6748,N,11847.0268,E,1,16,0.9,13.0,M,1.2,M,,0003C0201A0000100070025002E0F0537088D
$GNGGA,112142.000,3203.6752,N,11847.0261,E,1,16,0.8,12.0,M,1.2,M,,0003C0201A0000100070025002E0F0537088D
$GNGGA,112144.000,3203.6754,N,11847.0254,E,1,17,0.8,11.9,M,1.2,M,,0003C0201A0000100070025002E0F0537088D
$GNGGA,112146.000,3203.6757,N,11847.0245,E,1,17,0.8,11.0,M,1.2,M,,0003C0201A0000100070024002C0F0537088A
$GNGGA,112148.000,3203.6759,N,11847.0234,E,1,17,0.8,9.4,M,1.2,M,,00003C0201A0000100070024002C0F0537088A
$GNGGA,112150.000,3203.6761,N,11847.0223,E,1,17,0.8,9.4,M,1.2,M,,00003C0201A0000100070024002C0F0537088A
$GNGGA,112152.000,3203.6763,N,11847.0211,E,1,17,0.8,9.9,M,1.2,M,,00003C0201A0000100070023002B0F05370989
$GNGGA,112154.000,3203.6766,N,11847.0203,E,1,17,0.8,10.0,M,1.2,M,,0003C0201A0000100070023002B0F04380080
$GNGGA,112156.000,3203.6770,N,11847.0193,E,1,16,0.9,10.8,M,1.2,M,,0003C0201A0000100070023002B0F03380180
$GNGGA,112158.000,3203.6771,N,11847.0178,E,1,16,0.8,10.4,M,1.2,M,,0003C0201A0000100070023002B0F04380282
$GNGGA,112200.000,3203.6774,N,11847.0164,E,1,17,0.8,9.5,M,1.2,M,,00003C0201A0000100070023002B0F03380382
$GNGGA,112202.200,3203.6774,N,11847.0150,E,1,17,0.9,8.8,M,1.2,M,,00003C0201A0000100070024002C0F03380485
$GNGGA,112204.000,3203.6774,N,11847.0144,E,1,17,0.8,7.3,M,1.2,M,,00003C0201A0000100070024002C0F03380788
$GNGGA,112206.000,3203.6774,N,11847.0134,E,1,16,0.8,7.1,M,1.2,M,,00003C0201A0000100070025002E0F03390287
$GNGGA,112208.200,3203.6776,N,11847.0124,E,1,17,0.8,4.4,M,1.2,M,,00003C0201A0000100070025002E0F0239068A
$GNGGA,112210.000,3203.6781,N,11847.0114,E,1,17,0.8,4.4,M,1.2,M,,00003C0201A0000100070026002F0F0239078D
$GNGGA,112212.000,3203.6788,N,11847.0110,E,1,17,0.7,7.5,M,1.2,M,,00003C0201A0000100070026002F0F0239078D
$GNGGA,112214.200,3203.6797,N,11847.0105,E,1,17,0.7,10.4,M,1.2,M,,0003C0201A0000100070025002E0F013A0387
$GNGGA,112216.000,3203.6807,N,11847.0100,E,1,17,0.7,11.3,M,1.2,M,,0003C0201A0000100070025002E0F013A0387
$GNGGA,112222.000,3203.6829,N,11847.0084,E,1,15,0.7,8.9,M,1.2,M,,000000070024002C0F013A03843C0201A00001
$GNGGA,112224.000,3203.6831,N,11847.0078,E,1,15,0.9,10.4,M,1.2,M,,000038402A0000100070024002C0F023A0385
$GNGGA,112226.200,3203.6834,N,11847.0070,E,1,17,0.9,12.2,M,1.2,M,,0003C0201A0000100070024002C0F013A0384
$GNGGA,112228.000,3203.6834,N,11847.0062,E,1,15,1.0,11.1,M,1.2,M,,0003C0201A0000100070024002C0F013A0283
$GNGGA,112230.000,3203.6839,N,11847.0053,E,1,16,0.8,11.0,M,1.2,M,,0003C0201A90001000B0024002C0F013A008E
$GNGGA,112232.200,3203.6839,N,11847.0042,E,1,17,0.7,10.1,M,1.2,M,,0003C0201BE000200140024002C0F013909B5
$GNGGA,112234.000,3203.6840,N,11847.0035,E,1,16,0.7,9.3,M,1.2,M,,00003C0201B20002000F0025002E0F013908A6
$GNGGA,112236.000,3203.6842,N,11847.0026,E,1,16,0.8,10.2,M,1.2,M,,0003C0201B4000200100025002E0F013907A8
$GNGGA,112238.200,3203.6841,N,11847.0016,E,1,15,0.7,9.2,M,1.2,M,,00003C0201B4000200100026002F0F013906A9
$GNGGA,112240.000,3203.6840,N,11847.0006,E,1,16,0.7,10.2,M,1.2,M,,0003C0201DE000400220026002F0F013906E7
$GNGGA,112242.000,3203.6842,N,11846.9995,E,1,15,0.7,10.3,M,1.2,M,,0003C0201F50006002C0026002F0F0139080C
$GNGGA,112244.200,3203.6845,N,11846.9987,E,1,15,0.7,9.0,M,1.2,M,,00003C0201F90006002E0026002F0F02390813
$GNGGA,112246.000,3203.6846,N,11846.9981,E,1,15,0.8,9.6,M,1.2,M,,00003C0201F50006002C002700300F0239070E
$GNGGA,112248.000,3203.6845,N,11846.9969,E,1,15,0.8,9.9,M,1.2,M,,00003C0201DB00040021002700300F023905E5
$GNGGA,112250.200,3203.6846,N,11846.9960,E,1,15,0.7,8.8,M,1.2,M,,00003C0201EE00050029002700300F02390400
$GNGGA,112252.200,3203.6846,N,11846.9957,E,1,15,0.7,8.7,M,1.2,M,,00003C0201F90006002E0026002F0F0239040F
$GNGGA,112254.200,3203.6845,N,11846.9951,E,1,15,0.8,8.1,M,1.2,M,,00003C020209000700350026002F0F02390327
9,212,29,070,31*64
$BDGSV,3,3,11,204,00,000,31,205,00,000,25,202,00,3C0202170008003B0026002F0F0239033C
$GNGGA,112258.200,3203.6846,N,11846.9938,E,1,14,0.8,9.1,M,1.2,M,,00003C020213000800390025002E0F02390334
$GNGGA,112300.200,3203.6846,N,11846.9930,E,1,15,0.7,11.9,M,1.2,M,,0003C0202170008003B0026002F0F0239023B
34,131,30,212,29,070,29*66
$BDGSV,3,3,11,204,00,000,31,205,00,000,313C0202170008003B0026002F0F0239013A
$GNGGA,112304.200,3203.6844,N,11846.9907,E,1,16,0.7,11.6,M,1.2,M,,0003C02021E0008003E002700300F02390045
$GNGGA,112306.200,3203.6842,N,11846.9891,E,1,16,0.7,10.2,M,1.2,M,,0003C02021A0008003C002700300F0239003F
4,131,29,212,29,070,28*6E
$BDGSV,3,3,11,204,00,000,28,205,00,000,33,3C0202150008003A002800310F0239003A
$GNGGA,112310.200,3203.6839,N,11846.9860,E,1,16,0.7,8.9,M,1.2,M,,00003C02020000070031002800310F0239011C
$GNGGA,112312.200,3203.6837,N,11846.9846,E,1,16,0.7,8.2,M,1.2,M,,00003C0201B700020011002800310F023900AC
4,131,31,212,29,070,29*66
$BDGSV,3,3,11,204,00,000,29,205,00,000,37,3C0201A70001000A002900330F0338079E
ALIENTEK-HRTDT
$GNGGA,112316.200,3203.6839,N,11846.9832,E,1,16,0.7,8.3,M,1.2,M,,00003C0201BB00020013002900330F033807BC
$GNGGA,112318.200,3203.6840,N,11846.9829,E,1,16,0.7,8.4,M,1.2,M,,00003C0201D20004001D002900330F033807DF
$GNGGA,112321.200,3203.6840,N,11846.9829,E,0,00,0.0,9.6,M,0.0,M,,00003C0201A000010007000000000F0438083A
$GNGGA,112323.200,3203.6896,N,11846.9824,E,1,14,0.8,5.9,M,1.2,M,,00003C0201A000010007000200020F0438083E
$GNGGA,112325.200,3203.6892,N,11846.9809,E,1,16,0.7,4.1,M,1.2,M,,00003C0201A000010007000600070F04380847
$GNGGA,112327.200,3203.6881,N,11846.9799,E,1,17,0.7,7.6,M,1.2,M,,00003C0201A000010007000E00110F04380657
$GNGGA,112329.200,3203.6875,N,11846.9796,E,1,17,0.7,6.6,M,1.2,M,,00003C0201A0000100070016001B0F04380366
$GNGGA,112331.200,3203.6866,N,11846.9793,E,1,17,0.7,7.1,M,1.2,M,,00003C0201A000010007001E00250F03380175
$GNGGA,112333.200,3203.6856,N,11846.9794,E,1,17,0.7,6.5,M,1.2,M,,00003C0201A0000100070024002C0F0437098A
$GNGGA,112335.200,3203.6847,N,11846.9793,E,1,17,0.7,6.5,M,1.2,M,,00003C0201A000010007002700300F0337088F
$GNGGA,112337.200,3203.6838,N,11846.9793,E,1,16,0.7,7.9,M,1.2,M,,00003C0201A000010007002700300F0337068D
$GNGGA,112339.200,3203.6831,N,11846.9792,E,1,16,0.7,7.9,M,1.2,M,,00003C0201A0000100070026002F0F0337058A
$GNGGA,112341.200,3203.6823,N,11846.9793,E,1,16,0.9,8.0,M,1.2,M,,00003C0201A0000100070026002F0F0337058A
$GNGGA,112343.200,3203.6817,N,11846.9792,E,1,16,0.8,8.7,M,1.2,M,,00003C0201A0000100070026002F0F03370489
$GNGGA,112345.200,3203.6817,N,11846.9792,E,1,16,1.0,7.9,M,1.2,M,,00003C0201A0000100070026002F0F0437058B
$GNGGA,112347.200,3203.6815,N,11846.9787,E,1,15,0.7,7.1,M,1.2,M,,00003C0201A0000100070026002F0F0437058B
$GNGGA,112349.200,3203.6810,N,11846.9780,E,1,17,0.8,7.6,M,1.2,M,,00003C0201A0000100070026002F0F0437078D
$GNGGA,112351.200,3203.6807,N,11846.9770,E,1,17,0.8,9.2,M,1.2,M,,00003C0201A0000100070026002F0F0437078D
$GNGGA,112353.200,3203.6807,N,11846.9760,E,1,16,0.8,9.3,M,1.2,M,,00003C0201A000010007002700300F0437078F
$GNGGA,112355.400,3203.6806,N,11846.9754,E,1,17,0.8,9.2,M,1.2,M,,00003C0201A000010007002700300F0437078F
$GNGGA,112357.400,3203.6806,N,11846.9753,E,1,17,0.8,8.9,M,1.2,M,,00003C0201A000010007002700300F0437078F
$GNGGA,112359.400,3203.6809,N,11846.9749,E,1,16,0.8,8.3,M,1.2,M,,00003C0201A000010007002800310F04370892
$GNGGA,112401.400,3203.6813,N,11846.9745,E,1,16,0.8,8.7,M,1.2,M,,00003C0201A000010007002900330F03370793
$GNGGA,112403.400,3203.6819,N,11846.9740,E,1,16,0.8,8.6,M,1.2,M,,00003C0201A000010007002900330F03370793
$GNGGA,112405.400,3203.6819,N,11846.9730,E,1,16,0.8,9.3,M,1.2,M,,00003C0201A000010007002900330F03370692
$GNGGA,112407.400,3203.6815,N,11846.9720,E,1,16,0.8,10.8,M,1.2,M,,0003C0201A000010007002900330F03370692
$GNGGA,112409.400,3203.6817,N,11846.9715,E,1,16,0.8,8.6,M,1.2,M,,00003C0201A000010007002900330F03370591
$GNGGA,112411.400,3203.6819,N,11846.9711,E,1,16,0.8,6.5,M,1.2,M,,00003C0201A000010007002900330F03370793
$GNGGA,112413.400,3203.6816,N,11846.9707,E,1,17,0.8,6.8,M,1.2,M,,00003C0201A000010007002800310F03370891
$GNGGA,112415.400,3203.6803,N,11846.9703,E,1,17,0.8,7.0,M,1.2,M,,00003C0201A000010007002800310F02370991
$GNGGA,112417.400,3203.6790,N,11846.9697,E,1,16,0.8,5.3,M,1.2,M,,00003C0201A000010007002800310F02370991
$GNGGA,112419.400,3203.6780,N,11846.9697,E,1,16,0.8,8.6,M,1.2,M,,00003C0201A000010007002800310F02370991
$GNGGA,112421.400,3203.6771,N,11846.9696,E,1,16,0.8,8.0,M,1.2,M,,00003C0201A000010007002700300F02380188
$GNGGA,112423.400,3203.6765,N,11846.9695,E,1,16,0.8,7.1,M,1.2,M,,00003C0201A000010007002700300F02380289
$GNGGA,112425.400,3203.6758,N,11846.9695,E,1,15,0.9,8.1,M,1.2,M,,00003C0201A000010007002700300F0238048B
$GNGGA,112427.400,3203.6750,N,11846.9697,E,1,15,0.9,9.0,M,1.2,M,,00003C0201A0000100070026002F0F0238058A
$GNGGA,112429.400,3203.6733,N,11846.9694,E,1,16,0.8,7.9,M,1.2,M,,00003C0201A0000100070026002F0F0238068B
$GNGGA,112431.400,3203.6721,N,11846.9691,E,1,15,0.8,7.7,M,1.2,M,,00003C0201A0000100070026002F0F0238068B
$GNGGA,112433.400,3203.6706,N,11846.9690,E,1,15,0.8,8.7,M,1.2,M,,00003C0201A0000100070026002F0F0238068B
$GNGGA,112435.400,3203.6697,N,11846.9687,E,1,16,0.9,10.1,M,1.2,M,,0003C0201A0000100070025002E0F03380488
$GNGGA,112437.400,3203.6683,N,11846.9687,E,1,16,0.8,12.3,M,1.2,M,,0003C0201A0000100070025002E0F02380487
$GNGGA,112439.400,3203.6654,N,11846.9689,E,1,17,0.8,13.2,M,1.2,M,,0003C0201A0000100070025002E0F02380386
$GNGGA,112441.400,3203.6619,N,11846.9694,E,1,17,0.8,16.7,M,1.2,M,,0003C0201A0000100070025002E0F02380386
$GNGGA,112443.400,3203.6607,N,11846.9692,E,1,17,0.8,18.0,M,1.2,M,,0003C0201A0000100070026002F0F02380388
$GNGGA,112445.400,3203.6598,N,11846.9690,E,1,16,0.9,17.7,M,1.2,M,,0003C0201A0000100070026002F0F03380389
$GNGGA,112447.400,3203.6583,N,11846.9684,E,1,17,0.9,16.5,M,1.2,M,,0003C0201A0000100070026002F0F02380388
$GNGGA,112449.400,3203.6570,N,11846.9682,E,1,17,0.7,18.4,M,1.2,M,,0003C0201A0000100070026002F0F0238058A
$GNGGA,112451.400,3203.6563,N,11846.9684,E,1,15,0.8,20.5,M,1.2,M,,0003C0201A0000100070025002E0F02380689
$GNGGA,112453.400,3203.6554,N,11846.9686,E,1,17,0.8,22.1,M,1.2,M,,0003C0201A0000100070025002E0F0238078A
$GNGGA,112455.400,3203.6537,N,11846.9678,E,1,16,0.8,22.0,M,1.2,M,,0003C0201A0000100070024002C0F02380888
$GNGGA,112457.400,3203.6527,N,11846.9679,E,1,17,0.8,21.3,M,1.2,M,,0003C0201A0000100070024002C0F02380989
$GNGGA,112459.600,3203.6510,N,11846.9673,E,1,16,0.7,21.0,M,1.2,M,,0003C0201A0000100070024002C0F02390586
$GNGGA,112501.400,3203.6504,N,11846.9665,E,1,15,0.7,20.0,M,1.2,M,,0003C0201A0000100070024002C0F023A0183
$GNGGA,112503.400,3203.6503,N,11846.9656,E,1,15,0.7,16.4,M,1.2,M,,0003C0201A0000100070025002E0F023A058A
$GNGGA,112505.600,3203.6497,N,11846.9652,E,1,16,0.7,13.2,M,1.2,M,,0003C0201A0000100070026002F0F023A088F
$GNGGA,112507.400,3203.6488,N,11846.9648,E,1,16,0.8,14.0,M,1.2,M,,0003C0201A000010007002700300F023A0992
$GNGGA,112509.400,3203.6475,N,11846.9645,E,1,17,0.8,10.7,M,1.2,M,,0003C0201A000010007002800310F013A058F
$GNGGA,112511.600,3203.6470,N,11846.9638,E,1,16,0.8,9.3,M,1.2,M,,00003C0201A000010007002900330F023A008E
$GNGGA,112513.400,3203.6466,N,11846.9630,E,1,17,0.9,7.8,M,1.2,M,,00003C0201A000010007002900330F023A008E
ALIENTEK-HRTDT
$GNGGA,112515.400,3203.6449,N,11846.9614,E,1,17,0.9,8.5,M,1.2,M,,00003C0201A000010007002A00340F01390290
$GNGGA,112517.600,3203.6440,N,11846.9595,E,1,15,0.8,8.1,M,1.2,M,,00003C0201A000010007002A00340F02380997
$GNGGA,112519.400,3203.6442,N,11846.9586,E,1,15,0.8,8.2,M,1.2,M,,00003C0201A000010007002A00340F02380997
$GNGGA,112521.400,3203.6444,N,11846.9573,E,1,16,0.8,8.7,M,1.2,M,,00003C0201C200030016002900330F023806C5
$GNGGA,112523.600,3203.6424,N,11846.9550,E,1,16,0.8,14.4,M,1.2,M,,0003C0201B700020011002800310F013806B0
$GNGGA,112527.400,3203.6427,N,11846.9525,E,1,16,0.8,12.1,M,1.2,M,,0003C0201B00002000E0026002F0F013805A1
$GNGGA,112529.600,3203.6425,N,11846.9508,E,1,16,0.8,11.2,M,1.2,M,,0003C0201B20002000F0024002C0F0138039D
$GNGGA,112531.400,3203.6416,N,11846.9488,E,1,16,0.9,11.9,M,1.2,M,,0003C0201B4000200100023002B0F0138029D
$GNGGA,112533.400,3203.6407,N,11846.9468,E,1,16,0.8,12.4,M,1.2,M,,0003C0201B7000200110022002A0F0138019E
$GNGGA,112535.600,3203.6399,N,11846.9453,E,1,16,0.8,12.9,M,1.2,M,,0003C0201A70001000A002100290F01380184
$GNGGA,112537.400,3203.6395,N,11846.9443,E,1,17,0.8,13.9,M,1.2,M,,0003C0201A90001000B002000270F01380083
$GNGGA,112539.400,3203.6391,N,11846.9431,E,1,16,0.8,16.2,M,1.2,M,,0003C0201A90001000B002000270F01380083
$GNGGA,112543.400,3203.6389,N,11846.9407,E,1,17,0.8,16.6,M,1.2,M,,0003C0201B00002000E002100290F01380091
$GNGGA,112545.400,3203.6390,N,11846.9399,E,1,17,0.8,16.3,M,1.2,M,,0003C0201B20002000F002100290F0137099C
$GNGGA,112547.600,3203.6388,N,11846.9392,E,1,17,1.0,17.7,M,1.2,M,,0003C0201B4000200100022002A0F01380099
$GNGGA,112549.600,3203.6389,N,11846.9386,E,1,16,0.8,19.5,M,1.2,M,,0003C0201B4000200100022002A0F01380099
$GNGGA,112551.600,3203.6394,N,11846.9379,E,1,17,0.7,22.1,M,1.2,M,,0003C0201C2000300160024002C0F013802B4
11,35,130,33,212,29,069,35*66
$BDGSV,3,3,10,202,00,000,27,204,00,0003C0201DE000400220025002E0F013803E1
$GNGGA,112555.600,3203.6395,N,11846.9370,E,1,16,0.7,21.7,M,1.2,M,,0003C0201D70004001F0026002F0F023804DB
$GNGGA,112557.600,3203.6393,N,11846.9363,E,1,16,0.7,19.9,M,1.2,M,,0003C0201DB000400210026002F0F023804E1
,130,32,212,29,069,39*6E
$BDGSV,3,3,10,202,00,000,26,204,00,000,33*63C0201E0000500230026002F0F023803E8
$GNGGA,112601.600,3203.6396,N,11846.9355,E,1,17,1.0,21.9,M,1.2,M,,0003C0201E9000500270026002F0F023803F5
$GNGGA,112603.600,3203.6402,N,11846.9350,E,1,16,0.8,24.0,M,1.2,M,,0003C0202170008003B0026002F0F0338053E
35,130,28,212,29,069,29*67
$BDGSV,3,3,10,202,00,000,28,204,00,000,313C02021E0008003E0026002F0F02380648
$GNGGA,112607.600,3203.6411,N,11846.9345,E,1,16,0.8,26.1,M,1.2,M,,0003C020227000900420025002E0F02380755
$GNGGA,112609.600,3203.6416,N,11846.9342,E,1,17,0.8,25.0,M,1.2,M,,0003C020235000A00480025002E0F0238086B
11,35,130,27,212,29,068,25*63
$BDGSV,3,3,10,202,00,000,30,204,00,0003C02023A000A004A0024002C0F02390068
$GNGGA,112613.600,3203.6430,N,11846.9335,E,1,17,0.9,25.8,M,1.2,M,,0003C020248000B00500024002C0F0239017E
$GNGGA,112615.600,3203.6438,N,11846.9331,E,1,17,0.9,25.9,M,1.2,M,,0003C02024E000B00530023002B0F02390185
35,130,28,212,29,068,25*6F
$BDGSV,3,3,10,202,00,000,29,204,00,000,273C020258000C00570023002B0F03390195
$GNGGA,112624.800,3203.6466,N,11846.9320,E,0,00,0.0,27.9,M,0.0,M,,0003C0201A000010007000000000F02390233
MC,112626.600,A,3203.6432,N,11846.9287,E,000.0,016.8,101120,,,A*75
$3C0201A000010007000200020F02390338
$GNGGA,112628.600,3203.6435,N,11846.9280,E,1,14,0.8,49.4,M,1.2,M,,0003C0201A000010007000600070F02390341
$GNGGA,112633.000,3203.6451,N,11846.9274,E,1,16,0.7,54.9,M,1.2,M,,0003C0201A000010007001400180F03390462
$GNGGA,112635.000,3203.6458,N,11846.9272,E,1,16,0.8,53.4,M,1.2,M,,0003C0201A000010007001B00210F02390471
$GNGGA,112637.000,3203.6467,N,11846.9269,E,1,16,0.7,51.6,M,1.2,M,,0003C0201A000010007001B00210F02390471
$GNGGA,112639.000,3203.6474,N,11846.9268,E,1,16,0.8,51.7,M,1.2,M,,0003C0201A0000100070024002C0F03390284
$GNGGA,112641.000,3203.6481,N,11846.9266,E,1,16,0.8,53.0,M,1.2,M,,0003C0201A0000100070024002C0F03390183
$GNGGA,112643.000,3203.6488,N,11846.9265,E,1,16,0.9,54.2,M,1.2,M,,0003C0201A0000100070025002E0F03390186
$GNGGA,112645.000,3203.6496,N,11846.9262,E,1,16,0.7,50.4,M,1.2,M,,0003C0201A0000100070025002E0F03390186
$GNGGA,112647.000,3203.6503,N,11846.9258,E,1,15,0.8,47.7,M,1.2,M,,0003C0201A0000100070025002E0F0238098C
$GNGGA,112649.000,3203.6511,N,11846.9257,E,1,16,0.8,46.8,M,1.2,M,,0003C0201A0000100070026002F0F0238088D
$GNGGA,112651.000,3203.6519,N,11846.9256,E,1,16,0.8,44.0,M,1.2,M,,0003C0201A0000100070026002F0F0238078C
$GNGGA,112653.000,3203.6531,N,11846.9250,E,1,16,0.8,42.5,M,1.2,M,,0003C0201A0000100070026002F0F0238058A
$GNGGA,112655.000,3203.6539,N,11846.9246,E,1,15,0.8,44.4,M,1.2,M,,0003C0201A0000100070026002F0F02380388
$GNGGA,112657.000,3203.6544,N,11846.9237,E,1,16,0.7,46.3,M,1.2,M,,0003C0201A0000100070025002E0F03380387
$GNGGA,112659.000,3203.6549,N,11846.9235,E,1,15,0.8,48.3,M,1.2,M,,0003C0201A0000100070025002E0F0337098C
$GNGGA,112701.000,3203.6554,N,11846.9236,E,1,16,0.8,49.3,M,1.2,M,,0003C0201A0000100070025002E0F0337098C
$GNGGA,112703.000,3203.6562,N,11846.9237,E,1,16,1.0,47.8,M,1.2,M,,0003C0201A0000100070025002E0F03370689
$GNGGA,112705.000,3203.6571,N,11846.9238,E,1,16,0.8,48.2,M,1.2,M,,0003C0201A0000100070025002E0F03370285
$GNGGA,112707.000,3203.6585,N,11846.9244,E,1,16,0.7,45.8,M,1.2,M,,0003C0201A0000100070025002E0F03360688
$GNGGA,112709.000,3203.6594,N,11846.9252,E,1,16,0.8,45.8,M,1.2,M,,0003C0201A0000100070026002F0F03360286
$GNGGA,112711.000,3203.6604,N,11846.9258,E,1,15,0.9,37.8,M,1.2,M,,0003C0201A0000100070026002F0F0335098C
$GNGGA,112713.000,3203.6614,N,11846.9261,E,1,16,0.8,36.0,M,1.2,M,,0003C0201A0000100070026002F0F03350588
$GNGGA,112715.000,3203.6625,N,11846.9267,E,1,16,0.7,33.6,M,1.2,M,,0003C0201A000010007002700300F03350489
ALIENTEK-HRTDT
$GNGGA,112717.000,3203.6635,N,11846.9270,E,1,16,0.7,30.8,M,1.2,M,,0003C0201A000010007002700300F03350388
$GNGGA,112719.000,3203.6642,N,11846.9275,E,1,16,0.7,33.5,M,1.2,M,,0003C0201A000010007002700300F03350388
$GNGGA,112721.000,3203.6649,N,11846.9281,E,1,16,0.7,39.8,M,1.2,M,,0003C0201A000010007002700300F02350185
$GNGGA,112723.000,3203.6650,N,11846.9283,E,1,16,0.7,43.0,M,1.2,M,,0003C0201A000010007002800310F0234098E
$GNGGA,112725.000,3203.6650,N,11846.9283,E,1,16,0.7,43.8,M,1.2,M,,0003C0201A000010007002800310F0234098E
$GNGGA,112727.200,3203.6649,N,11846.9284,E,1,16,0.7,47.8,M,1.2,M,,0003C0201A000010007002800310F0234098E
$GNGGA,112729.200,3203.6646,N,11846.9288,E,1,15,0.8,50.0,M,1.2,M,,0003C0201A000010007002700300F0234088B
$GNGGA,112731.200,3203.6644,N,11846.9292,E,1,16,0.7,52.6,M,1.2,M,,0003C0201A000010007002700300F0334078B
$GNGGA,112733.200,3203.6639,N,11846.9295,E,1,16,0.7,56.2,M,1.2,M,,0003C0201A000010007002700300F0234078A
$GNGGA,112735.200,3203.6604,N,11846.9273,E,1,16,0.8,66.5,M,1.2,M,,0003C0201A000010007002700300F02350387
$GNGGA,112737.200,3203.6600,N,11846.9275,E,1,15,1.0,67.0,M,1.2,M,,0003C0201A000010007002700300F0335078C
$GNGGA,112739.200,3203.6598,N,11846.9279,E,1,16,0.8,66.0,M,1.2,M,,0003C0201A000010007002700300F0335098E
$GNGGA,112741.200,3203.6600,N,11846.9285,E,1,15,1.0,69.1,M,1.2,M,,0003C0201A000010007002800310F03360088
$GNGGA,112743.200,3203.6596,N,11846.9292,E,1,16,0.8,69.6,M,1.2,M,,0003C0201A000010007002800310F04350991
$GNGGA,112745.200,3203.6594,N,11846.9298,E,1,16,0.8,69.5,M,1.2,M,,0003C0201A000010007002800310F04350991
$GNGGA,112747.200,3203.6595,N,11846.9304,E,1,16,0.8,71.6,M,1.2,M,,0003C0201A000010007002800310F05350992
$GNGGA,112749.200,3203.6596,N,11846.9310,E,1,15,1.0,72.2,M,1.2,M,,0003C0201A000010007002800310F05350992
$GNGGA,112751.200,3203.6597,N,11846.9314,E,1,15,1.0,72.1,M,1.2,M,,0003C0201A000010007002800310F0536008A
$GNGGA,112753.200,3203.6602,N,11846.9321,E,1,15,1.0,69.7,M,1.2,M,,0003C0201A000010007002800310F0636008B
$GNGGA,112755.200,3203.6604,N,11846.9327,E,1,15,1.0,67.6,M,1.2,M,,0003C0201A000010007002800310F0636018C
$GNGGA,112757.200,3203.6603,N,11846.9327,E,1,14,0.8,66.3,M,1.2,M,,0003C0201A000010007002800310F0636028D
$GNGGA,112759.200,3203.6646,N,11846.9357,E,1,15,0.8,51.3,M,1.2,M,,0003C0201A000010007002800310F0636048F
$GNGGA,112801.200,3203.6649,N,11846.9367,E,1,14,0.8,46.9,M,1.2,M,,0003C0201A000010007002800310F06360691
$GNGGA,112803.200,3203.6656,N,11846.9379,E,1,15,0.8,35.1,M,1.2,M,,0003C0201A000010007002700300F05360991
$GNGGA,112805.200,3203.6656,N,11846.9387,E,1,15,1.0,37.2,M,1.2,M,,0003C0201A000010007002700300F05370089
$GNGGA,112807.200,3203.6658,N,11846.9394,E,1,15,0.8,33.7,M,1.2,M,,0003C0201A000010007002700300F05370089
$GNGGA,112809.200,3203.6662,N,11846.9398,E,1,15,0.8,32.3,M,1.2,M,,0003C0201A000010007002700300F05370089
$GNGGA,112811.200,3203.6670,N,11846.9405,E,1,15,1.0,29.6,M,1.2,M,,0003C0201A000010007002700300F0436088F
$GNGGA,112813.200,3203.6678,N,11846.9411,E,1,14,0.8,29.1,M,1.2,M,,0003C0201A000010007002700300F0437028A
$GNGGA,112815.200,3203.6707,N,11846.9426,E,1,15,0.8,28.5,M,1.2,M,,0003C0201A000010007002700300F0437048C
$GNGGA,112817.200,3203.6731,N,11846.9448,E,1,14,0.8,29.3,M,1.2,M,,0003C0201A000010007002700300F0437068E
$GNGGA,112819.200,3203.6745,N,11846.9457,E,1,14,0.9,28.5,M,1.2,M,,0003C0201A000010007002700300F04370890
$GNGGA,112821.200,3203.6759,N,11846.9463,E,1,16,0.7,26.3,M,1.2,M,,0003C0201A000010007002700300F04380089
$GNGGA,112823.200,3203.6774,N,11846.9472,E,1,16,0.7,21.3,M,1.2,M,,0003C0201A000010007002700300F03370990
$GNGGA,112825.400,3203.6792,N,11846.9481,E,1,16,0.7,21.7,M,1.2,M,,0003C0201A90001000B002700300F0337079B
$GNGGA,112827.400,3203.6801,N,11846.9482,E,1,16,0.7,22.0,M,1.2,M,,0003C0201AB0001000C002700300F0337039A
$GNGGA,112831.400,3203.6854,N,11846.9509,E,1,16,0.8,20.7,M,1.2,M,,0003C0201B00002000E0026002F0F0337019E
$GNGGA,112833.400,3203.6881,N,11846.9516,E,1,16,0.8,17.9,M,1.2,M,,0003C0201B20002000F0026002F0F033607A6
$GNGGA,112835.400,3203.6907,N,11846.9514,E,1,16,0.8,16.2,M,1.2,M,,0003C0201B4000200100025002E0F033603A3
$GNGGA,112837.400,3203.6933,N,11846.9515,E,1,16,0.9,16.0,M,1.2,M,,0003C0201B7000200110025002E0F033509AC
$GNGGA,112839.400,3203.6954,N,11846.9513,E,1,16,0.9,15.7,M,1.2,M,,0003C0201A70001000A0025002E0F03350691
$GNGGA,112841.400,3203.6969,N,11846.9512,E,1,16,0.9,15.2,M,1.2,M,,0003C0201B4000200100025002E0F033505A4
$GNGGA,112843.400,3203.6983,N,11846.9506,E,1,16,0.9,16.5,M,1.2,M,,0003C0201D50004001E0025002E0F023505D4
$GNGGA,112845.400,3203.7003,N,11846.9507,E,1,16,0.7,16.2,M,1.2,M,,0003C0201DE000400220025002E0F023506E2
$GNGGA,112847.400,3203.7015,N,11846.9503,E,1,16,0.8,17.2,M,1.2,M,,0003C0201D20004001D0025002E0F023507D2
$GNGGA,112851.400,3203.7042,N,11846.9491,E,1,16,0.8,20.0,M,1.2,M,,0003C0201B4000200100025002E0F023504A2
$GNGGA,112853.400,3203.7050,N,11846.9476,E,1,16,0.7,20.0,M,1.2,M,,0003C0201A70001000A0024002C0F0235038A
$GNGGA,112855.400,3203.7055,N,11846.9467,E,1,16,0.8,19.4,M,1.2,M,,0003C0201B4000200100024002C0F0235049F
$GNGGA,112857.400,3203.7061,N,11846.9458,E,1,16,0.7,21.3,M,1.2,M,,0003C0201AB0001000C0023002B0F0235048F
$GNGGA,112901.400,3203.7069,N,11846.9433,E,1,15,0.7,22.2,M,1.2,M,,0003C0201B00002000E0022002A0F02350495
$GNGGA,112903.400,3203.7068,N,11846.9420,E,1,14,0.9,22.9,M,1.2,M,,0003C0201B20002000F0022002A0F02350498
$GNGGA,112913.400,3203.7055,N,11846.9356,E,1,15,0.7,22.0,M,1.2,M,,0003C0201A90001000B00242C0F0235038D3C
$GNGGA,112913.400,3203.7055,N,11846.9356,E,1,15,0.7,22.0,M,1.2,M,,0003C0201A90001000B00242C0F0235038D3C
$GNGGA,112915.400,3203.7051,N,11846.9344,E,1,15,0.7,22.1,M,1.2,M,,0003C0201A90001000B00242C0F0235038D3C
ALIENTEK-HRTDT
$GNGGA,112917.400,3203.7044,N,11846.9331,E,1,14,0.9,21.9,M,1.2,M,,0003C0201DE000400220025002E0F033504E1
$GNGGA,112919.400,3203.7045,N,11846.9318,E,1,15,0.8,22.3,M,1.2,M,,0003C0201F70006002D0025002E0F02350406
$GNGGA,112921.400,3203.7046,N,11846.9310,E,1,14,0.9,23.5,M,1.2,M,,0003C020203000700320025002E0F0335051B
$GNGGA,112923.400,3203.7048,N,11846.9302,E,1,14,0.8,24.4,M,1.2,M,,0003C020203000700320025002E0F0335051B
$GNGGA,112925.400,3203.7047,N,11846.9292,E,1,15,0.8,23.3,M,1.2,M,,0003C020227000900420026002F0F02350754
$GNGGA,112927.400,3203.7045,N,11846.9285,E,1,15,0.8,26.0,M,1.2,M,,0003C020255000C0056002900330F033508A2
$GNGGA,112929.600,3203.7044,N,11846.9278,E,1,15,0.8,27.6,M,1.2,M,,0003C02020900070035002D00380F03350839
$GNGGA,112931.400,3203.7043,N,11846.9271,E,1,16,0.7,28.8,M,1.2,M,,0003C0201DB000400210031003D0F033506FA
$GNGGA,112933.400,3203.7044,N,11846.9262,E,1,16,0.8,30.2,M,1.2,M,,0003C0201B400020010003500410F033505C7
$GNGGA,112935.600,3203.7045,N,11846.9250,E,1,14,0.7,29.9,M,1.2,M,,0003C0201B400020010003800450F033503CC
$GNGGA,112937.400,3203.7047,N,11846.9240,E,1,16,0.7,30.6,M,1.2,M,,0003C0201B700020011003800450F033501CE
$GNGGA,112939.400,3203.7054,N,11846.9233,E,1,16,0.7,31.2,M,1.2,M,,0003C0201A70001000A003700440F033409BB
$GNGGA,112941.600,3203.7070,N,11846.9222,E,1,15,0.7,31.6,M,1.2,M,,0003C0201A90001000B003600430F033407BA
$GNGGA,112945.400,3203.7084,N,11846.9215,E,1,16,0.8,29.9,M,1.2,M,,000B83C0201B0000200002F003A0F043404B3
$GNGGA,112947.600,3203.7086,N,11846.9211,E,1,16,0.7,30.7,M,1.2,M,,0003C0201B20002000F002C00360F043403AE
$GNGGA,112949.400,3203.7096,N,11846.9209,E,1,16,0.7,29.3,M,1.2,M,,0003C0201B400020010002800310F043403A8
$GNGGA,112951.400,3203.7105,N,11846.9208,E,1,16,0.8,26.4,M,1.2,M,,0003C0201B7000200110026002F0F043401A6
$GNGGA,112953.600,3203.7112,N,11846.9212,E,1,15,0.7,24.4,M,1.2,M,,0003C0201B7000200110025002E0F043400A3
$GNGGA,112955.400,3203.7119,N,11846.9218,E,1,16,0.7,24.0,M,1.2,M,,0003C0201B7000200110025002E0F043400A3
$GNGGA,112957.400,3203.7123,N,11846.9225,E,1,15,0.8,25.9,M,1.2,M,,0003C0201C9000300190025002E0F053309C7
$GNGGA,112959.600,3203.7126,N,11846.9232,E,1,16,0.7,28.0,M,1.2,M,,0003C0201B7000200110025002E0F053308AB
$GNGGA,113001.400,3203.7128,N,11846.9238,E,1,16,0.7,28.7,M,1.2,M,,0003C0201B4000200100025002E0F063309A9
$GNGGA,113003.400,3203.7127,N,11846.9246,E,1,15,0.8,30.1,M,1.2,M,,0003C0201BB000200130025002E0F063309B3
$GNGGA,113005.600,3203.7128,N,11846.9255,E,1,15,0.7,31.3,M,1.2,M,,0003C0201B7000200110025002E0F063308AC
$GNGGA,113007.400,3203.7129,N,11846.9262,E,1,15,0.7,32.2,M,1.2,M,,0003C0201B4000200100025002E0F073307A8
$GNGGA,113009.400,3203.7130,N,11846.9272,E,1,15,0.7,33.0,M,1.2,M,,0003C0201CE0003001B0025002E0F073307CE
$GNGGA,113011.600,3203.7129,N,11846.9280,E,1,13,0.8,34.5,M,1.2,M,,0003C0201CE0003001B0025002E0F073307CE
$GNGGA,113013.400,3203.7130,N,11846.9287,E,1,15,0.7,35.6,M,1.2,M,,0003C0201B4000200100026002F0F083306AA
$GNGGA,113015.400,3203.7129,N,11846.9292,E,1,16,0.7,36.9,M,1.2,M,,0003C0201D20004001D0026002F0F083305D6
$GNGGA,113017.600,3203.7128,N,11846.9299,E,1,16,0.8,37.5,M,1.2,M,,0003C0201E7000500260026002F0F093305F6
$GNGGA,113019.600,3203.7131,N,11846.9313,E,1,15,0.9,37.8,M,1.2,M,,0003C02020E00070037002700300F09330432
$GNGGA,113021.600,3203.7131,N,11846.9322,E,1,15,0.7,36.6,M,1.2,M,,0003C02022700090042002700300F09330357
2,29,066,33,202,00,000,30*60
$BDGSV,3,3,10,203,00,000,36,204,00,000,3C020233000A0047002800310F0933036B
$GNGGA,113025.600,3203.7131,N,11846.9338,E,1,16,0.7,37.3,M,1.2,M,,0003C02022300090040002800310F09330353
$GNGGA,113027.600,3203.7130,N,11846.9343,E,1,15,0.7,38.4,M,1.2,M,,0003C02020E0007003700280031100033022A
066,32,202,00,000,29*60
$BDGSV,3,3,10,203,00,000,35,204,00,000,34*6F3C020237000A0049002700301000330266
$GNGGA,113031.600,3203.7131,N,11846.9356,E,1,15,0.7,39.7,M,1.2,M,,0003C020243000B004E002700301000330177
$GNGGA,113033.600,3203.7128,N,11846.9368,E,1,16,0.7,39.7,M,1.2,M,,0003C02028F000F006F0026002F10003302E7
,32,202,00,000,30*61
$BDGSV,3,3,10,203,00,000,34,204,00,000,36*6C
$3C0202B6001200800026002F1000330222
$GNGGA,113037.600,3203.7132,N,11846.9389,E,1,14,0.7,40.5,M,1.2,M,,0003C0202C6001300870025002E1000330238
$GNGGA,113039.600,3203.7132,N,11846.9397,E,1,15,0.7,39.2,M,1.2,M,,0003C02029A001000740025002E10013301F6
128,34,212,29,066,30,202,00,000,37*6E
$BDGSV,3,3,10,203,00,000,35,203C020253000C00550025002E100133018C
$GNGGA,113043.600,3203.7135,N,11846.9414,E,1,16,0.7,39.0,M,1.2,M,,0003C020241000B004D0025002E1001330070
$GNGGA,113045.600,3203.7135,N,11846.9423,E,1,15,0.7,38.6,M,1.2,M,,0003C02027F000E00680025002E10013300CC
$GNGGA,113049.600,3203.7141,N,11846.9442,E,1,15,0.7,37.8,M,1.2,M,,0003C02025F000C005A0025002E100133019D
$GNGGA,113051.600,3203.7141,N,11846.9451,E,1,16,0.8,38.7,M,1.2,M,,0003C02024E000B00530026002F1001330287
$GNGGA,113055.200,3203.7141,N,11846.9452,E,0,00,0.0,39.9,M,0.0,M,,0003C0201A00001000700000000100133002B
$GNGGA,113057.200,3203.7201,N,11846.9600,E,1,08,1.4,33.6,M,1.2,M,,0003C0201A00001000700020002100133002F
$GNGGA,113059.200,3203.7202,N,11846.9602,E,1,11,1.1,28.1,M,1.2,M,,0003C0201A000010007000500061001330036
$GNGGA,113103.200,3203.7209,N,11846.9613,E,1,15,0.8,24.4,M,1.2,M,,0003C0201A000010007001100151002330052
$GNGGA,113105.200,3203.7213,N,11846.9620,E,1,15,0.8,19.4,M,1.2,M,,0003C0201A0000100070017001C100233005F
$GNGGA,113107.200,3203.7216,N,11846.9627,E,1,16,0.7,15.6,M,1.2,M,,0003C0201A000010007001B0021100132096F
$GNGGA,113109.200,3203.7220,N,11846.9635,E,1,16,0.7,16.6,M,1.2,M,,0003C0201A000010007001F00261001320978
$GNGGA,113111.200,3203.7221,N,11846.9645,E,1,15,0.7,15.9,M,1.2,M,,0003C0201A000010007001F00261000320977
$GNGGA,113113.200,3203.7222,N,11846.9654,E,1,16,0.7,16.1,M,1.2,M,,0003C0201A000010007002000271000320979
$GNGGA,113115.200,3203.7220,N,11846.9659,E,1,16,0.7,16.0,M,1.2,M,,0003C0201A00001000700210029100032097C
$GNGGA,113117.200,3203.7221,N,11846.9669,E,1,16,0.7,17.0,M,1.2,M,,0003C0201A0000100070022002A1000330076
ALIENTEK-HRTDT
$GNGGA,113119.200,3203.7222,N,11846.9679,E,1,15,0.8,17.6,M,1.2,M,,0003C0201A0000100070023002B0F09330080
$GNGGA,113121.200,3203.7224,N,11846.9686,E,1,16,0.7,16.1,M,1.2,M,,0003C0201A0000100070024002C0F09330183
$GNGGA,113123.200,3203.7229,N,11846.9697,E,1,16,0.7,16.4,M,1.2,M,,0003C0201A0000100070024002C0F09330183
$GNGGA,113125.200,3203.7230,N,11846.9708,E,1,16,0.8,16.7,M,1.2,M,,0003C0201A0000100070025002E0F09330388
$GNGGA,113127.200,3203.7233,N,11846.9716,E,1,15,0.9,15.8,M,1.2,M,,0003C0201A0000100070025002E0F09330489
$GNGGA,113129.200,3203.7233,N,11846.9728,E,1,16,0.7,15.8,M,1.2,M,,0003C0201A0000100070024002C0F09330587
$GNGGA,113131.200,3203.7232,N,11846.9737,E,1,16,0.7,15.4,M,1.2,M,,0003C0201A0000100070024002C0F09330789
$GNGGA,113133.200,3203.7227,N,11846.9745,E,1,16,0.8,16.1,M,1.2,M,,0003C0201A0000100070024002C0F0933088A
$GNGGA,113135.200,3203.7225,N,11846.9747,E,1,14,0.8,15.9,M,1.2,M,,0003C0201A0000100070024002C0F0933088A
$GNGGA,113137.200,3203.7220,N,11846.9749,E,1,16,0.8,14.8,M,1.2,M,,0003C0201A0000100070023002B0F09340081
$GNGGA,113139.200,3203.7215,N,11846.9750,E,1,15,0.9,14.8,M,1.2,M,,0003C0201A0000100070023002B0F09340283
$GNGGA,113141.200,3203.7212,N,11846.9755,E,1,16,0.7,14.4,M,1.2,M,,0003C0201A0000100070023002B0F09340485
$GNGGA,113143.200,3203.7211,N,11846.9764,E,1,16,0.7,14.5,M,1.2,M,,0003C0201A0000100070023002B0F09340586
$GNGGA,113145.200,3203.7208,N,11846.9776,E,1,16,0.7,15.5,M,1.2,M,,0003C0201A0000100070024002C0F08340789
$GNGGA,113147.200,3203.7204,N,11846.9786,E,1,16,0.7,15.6,M,1.2,M,,0003C0201A0000100070024002C0F08340789
$GNGGA,113149.400,3203.7204,N,11846.9797,E,1,16,0.7,16.4,M,1.2,M,,0003C0201A0000100070024002C0F08350386
$GNGGA,113151.400,3203.7203,N,11846.9806,E,1,15,0.8,16.9,M,1.2,M,,0003C0201A0000100070025002E0F0835058B
$GNGGA,113153.400,3203.7198,N,11846.9815,E,1,15,0.9,17.5,M,1.2,M,,0003C0201A0000100070025002E0F0735068B
$GNGGA,113155.400,3203.7192,N,11846.9823,E,1,16,0.8,17.9,M,1.2,M,,0003C0201A0000100070025002E0F07350489
$GNGGA,113157.400,3203.7187,N,11846.9833,E,1,16,0.7,17.9,M,1.2,M,,0003C0201A0000100070025002E0F0735058A
$GNGGA,113159.400,3203.7185,N,11846.9841,E,1,15,0.7,17.9,M,1.2,M,,0003C0201A0000100070026002F0F0735058C
$GNGGA,113201.400,3203.7181,N,11846.9849,E,1,16,0.7,17.0,M,1.2,M,,0003C0201A0000100070026002F0F0735048B
$GNGGA,113203.400,3203.7179,N,11846.9854,E,1,15,0.9,16.5,M,1.2,M,,0003C0201A0000100070026002F0F0635048A
$GNGGA,113205.400,3203.7177,N,11846.9861,E,1,16,0.8,15.7,M,1.2,M,,0003C0201A0000100070026002F0F0635088E
$GNGGA,113207.400,3203.7173,N,11846.9867,E,1,16,0.8,14.1,M,1.2,M,,0003C0201A000010007002700300F0636028B
$GNGGA,113209.400,3203.7167,N,11846.9872,E,1,16,0.9,13.0,M,1.2,M,,0003C0201A000010007002700300F0636048D
$GNGGA,113211.400,3203.7161,N,11846.9879,E,1,15,0.9,12.9,M,1.2,M,,0003C0201A0000100070026002F0F0536068C
$GNGGA,113213.400,3203.7155,N,11846.9884,E,1,15,0.9,12.1,M,1.2,M,,0003C0201A0000100070026002F0F0536088E
$GNGGA,113215.400,3203.7149,N,11846.9891,E,1,15,0.9,12.7,M,1.2,M,,0003C0201A0000100070026002F0F05370188
$GNGGA,113217.400,3203.7142,N,11846.9895,E,1,15,0.9,13.7,M,1.2,M,,0003C0201A0000100070025002E0F05370287
$GNGGA,113219.400,3203.7134,N,11846.9901,E,1,16,0.9,15.0,M,1.2,M,,0003C0201A0000100070025002E0F04370488
$GNGGA,113221.400,3203.7121,N,11846.9909,E,1,16,0.8,15.3,M,1.2,M,,0003C0201A0000100070025002E0F0437068A
$GNGGA,113223.400,3203.7108,N,11846.9916,E,1,16,0.9,15.2,M,1.2,M,,0003C0201A0000100070025002E0F0337078A
$GNGGA,113225.400,3203.7088,N,11846.9929,E,1,16,0.9,14.4,M,1.2,M,,0003C0201A0000100070025002E0F0337088B
$GNGGA,113227.400,3203.7081,N,11846.9935,E,1,15,1.0,12.0,M,1.2,M,,0003C0201A0000100070026002F0F0337098E
$GNGGA,113229.400,3203.7066,N,11846.9946,E,1,15,1.0,11.9,M,1.2,M,,0003C0201A0000100070026002F0F0337088D
$GNGGA,113231.400,3203.7051,N,11846.9958,E,1,16,0.9,12.4,M,1.2,M,,0003C0201A0000100070026002F0F0337088D
$GNGGA,113233.400,3203.7041,N,11846.9963,E,1,15,1.1,12.3,M,1.2,M,,0003C0201A0000100070026002F0F0337088D
$GNGGA,113235.400,3203.7029,N,11846.9970,E,1,16,0.9,12.7,M,1.2,M,,0003C0201A0000100070026002F0F0337088D
